name,status,year_compl,hu,commsf,latitude,longitude,municipal,rpa_name
Marion Woods,cancelled,2015,9,0,42.38031172,-71.51369078,Hudson,Metropolitan Area Planning Council
King David Hotel,cancelled,2015,0,0,42.26621311,-71.17001848,Boston,Metropolitan Area Planning Council
3 pond park,completed,2015,0,5000,42.17586973,-70.91876792,Hingham,Metropolitan Area Planning Council
Neponset Field,completed,2015,95,0,42.26158234,-71.10632078,Boston,Metropolitan Area Planning Council
"5 Channel Center - Fraunhofer ""Living Lab""",completed,2015,0,50000,42.3449167,-71.05173498,Boston,Metropolitan Area Planning Council
40 Washington St,completed,2015,0,7000,42.44112336,-71.07210669,Melrose,Metropolitan Area Planning Council
Ink Block- 300 Harrison Avenue,completed,2015,471,85000,42.34603207,-71.06246155,Boston,Metropolitan Area Planning Council
Starboard Place (Parcel 39A),completed,2015,54,50790,42.37607848,-71.05333727,Boston,Metropolitan Area Planning Council
The Viridian (1282 Boylston),completed,2015,322,15000,42.34465097,-71.09694034,Boston,Metropolitan Area Planning Council
Middlesex School Paine Barn,completed,2015,0,8050,42.49848927,-71.36794229,Concord,Metropolitan Area Planning Council
FM Global Campus Office Development Norwood,completed,2015,0,14025,42.17401652,-71.19070573,Norwood,Metropolitan Area Planning Council
Madison Tropical Parcel 10 (Tropical Foods),completed,2015,30,94000,42.33323687,-71.0823477,Boston,Metropolitan Area Planning Council
15 Zaloga Way,completed,2015,1,0,42.60774033,-71.01395906,Middleton,Metropolitan Area Planning Council
401 West First Street,completed,2015,45,0,42.33771333,-71.04437537,Boston,Metropolitan Area Planning Council
637 East First Street,completed,2015,23,0,42.33807901,-71.03403333,Boston,Metropolitan Area Planning Council
Hyde-Blakemore Project,completed,2015,13,0,42.28496133,-71.11920494,Boston,Metropolitan Area Planning Council
West Square,completed,2015,255,0,42.34095129,-71.04975324,Boston,Metropolitan Area Planning Council
Brigham and Womens Hospital - Green Project,completed,2015,0,0,42.33510811,-71.10451949,Boston,Metropolitan Area Planning Council
Boston Public Market at 136 Blackstone Street,completed,2015,0,29460,42.36216866,-71.05749063,Boston,Metropolitan Area Planning Council
Gate of Heaven Residential Development,completed,2015,24,0,42.33448472,-71.04030731,Boston,Metropolitan Area Planning Council
Amberfields Subdivision,completed,2015,30,0,42.02297391,-71.37300119,Wrentham,Metropolitan Area Planning Council
Boston Childrens Museum Expansion & Renovation,completed,2015,0,22300,42.35195696,-71.04975608,Boston,Metropolitan Area Planning Council
174 Hampden Street,completed,2015,0,25000,42.32721946,-71.07495655,Boston,Metropolitan Area Planning Council
Greater Boston Food Bank,completed,2015,0,110000,42.33422851,-71.06566063,Boston,Metropolitan Area Planning Council
Warren Green,completed,2015,17,0,42.37400672,-71.06152572,Boston,Metropolitan Area Planning Council
75 Brainerd Road,completed,2015,104,0,42.34765346,-71.13412665,Boston,Metropolitan Area Planning Council
1000 Washington Street,completed,2015,0,100000,42.34602963,-71.06409146,Boston,Metropolitan Area Planning Council
"Period Realty Trust, 68-86 Thoreau St.",completed,2015,0,100,42.45660042,-71.35743461,Concord,Metropolitan Area Planning Council
Mass Bio Lab Phase II,completed,2015,0,97000,42.28577026,-71.10286053,Boston,Metropolitan Area Planning Council
Spaulding Rehabilitation CNY,completed,2015,0,240000,42.3786573,-71.04896329,Boston,Metropolitan Area Planning Council
Olmsted Green Lena Park CDC and Brooke Charter School,completed,2015,0,49000,42.29458484,-71.09224632,Boston,Metropolitan Area Planning Council
Woodland Meadows,completed,2015,16,,42.29284228,-71.50482646,Southborough,Metropolitan Area Planning Council
YMCA Renovation,completed,2015,0,62390,42.33909927,-71.08822089,Boston,Metropolitan Area Planning Council
Cowings Cove,completed,2015,7,,42.18959248,-70.80212147,Norwell,Metropolitan Area Planning Council
362 Elm Street,completed,2015,0,70000,42.34664766,-71.57369437,Marlborough,Metropolitan Area Planning Council
100 Arlington,completed,2015,128,10250,42.34991308,-71.06945115,Boston,Metropolitan Area Planning Council
33 Central,completed,2015,8,1000,42.46408057,-70.9445009,Lynn,Metropolitan Area Planning Council
24-30 Rockland Street,completed,2015,40,0,42.32195912,-71.08402505,Boston,Metropolitan Area Planning Council
368 Congress Street,completed,2015,0,100451,42.35035618,-71.04776823,Boston,Metropolitan Area Planning Council
Hilton Homewood Suites,completed,2015,0,42500,42.33133843,-71.12063853,Brookline,Metropolitan Area Planning Council
Sophia Snow House,completed,2015,102,0,42.29836952,-71.13072957,Boston,Metropolitan Area Planning Council
Roxbury Senior Building- 28 Gurney Street,completed,2015,40,0,42.32920965,-71.09687542,Boston,Metropolitan Area Planning Council
Paradigm at Blakemore Project,completed,2015,16,0,42.28596662,-71.11997608,Boston,Metropolitan Area Planning Council
Minute Man ARC,completed,2015,0,29822,42.44167941,-71.4243385,Concord,Metropolitan Area Planning Council
Windsor Estates,completed,2015,44,0,42.51156663,-71.01510218,Lynnfield,Metropolitan Area Planning Council
Massachusetts General Hospital - Museum and History Center,completed,2015,0,8000,42.36049807,-71.06856181,Boston,Metropolitan Area Planning Council
296 Cambridge Street,completed,2015,0,1400,42.36092794,-71.06847722,Boston,Metropolitan Area Planning Council
65 Beacon St,completed,2015,14,4000,42.37642917,-71.10366817,Somerville,Metropolitan Area Planning Council
648 Old West Central Street - Commercial Development,completed,2015,0,8955,42.09095028,-71.42431398,Franklin,Metropolitan Area Planning Council
Mt. Skirgo ridge,completed,2015,30,0,42.09856624,-70.73491777,Marshfield,Metropolitan Area Planning Council
Highland Estates,completed,2015,14,0,42.22984329,-70.79802839,Cohasset,Metropolitan Area Planning Council
The Village at Cedarcrest,completed,2015,9,0,42.18213128,-71.15364577,Canton,Metropolitan Area Planning Council
South end Farms,completed,2015,52,0,42.19036926,-71.35617293,Millis,Metropolitan Area Planning Council
Lavender Lane,completed,2015,4,0,42.48073386,-71.30922272,Bedford,Metropolitan Area Planning Council
VA housing,completed,2015,70,0,42.50381402,-71.2709775,Bedford,Metropolitan Area Planning Council
114 Mt. Auburn St (Conductors Building),completed,2015,0,83200,42.37297576,-71.12247865,Cambridge,Metropolitan Area Planning Council
E. L. Harvey & Sons,completed,2015,0,125300,42.25322801,-71.58625727,Hopkinton,Metropolitan Area Planning Council
563-603 Concord Ave,completed,2015,61,7184,42.38929093,-71.14443763,Cambridge,Metropolitan Area Planning Council
74 Highland Street,completed,2015,7,0,42.3280158,-71.0922041,Boston,Metropolitan Area Planning Council
Palmer Street,completed,2015,0,26000,42.33033955,-71.08278241,Boston,Metropolitan Area Planning Council
375 Market Street,completed,2015,39,0,42.35065245,-71.15327923,Boston,Metropolitan Area Planning Council
Gallery Automotive,completed,2015,0,68500,42.16657631,-70.89922332,Rockland,Metropolitan Area Planning Council
86 Dummer Street,completed,2015,32,0,42.34956724,-71.11507427,Brookline,Metropolitan Area Planning Council
16 Tower Street,completed,2015,4,0,42.30035172,-71.44503799,Framingham,Metropolitan Area Planning Council
Christa Mcauliffe Library - 746 Water Street,completed,2015,0,17000,42.32881926,-71.43277167,Framingham,Metropolitan Area Planning Council
198 Union Avenue,completed,2015,6,0,42.28264326,-71.42099992,Framingham,Metropolitan Area Planning Council
Mass College of Art Residence Hall,completed,2015,145,0,42.33586064,-71.09963501,Boston,Metropolitan Area Planning Council
St. Kevin's Redevelopment,completed,2015,80,0,42.31564686,-71.0669799,Boston,Metropolitan Area Planning Council
The Coolidge at Sudbury,completed,2015,64,0,42.36085074,-71.40105504,Sudbury,Metropolitan Area Planning Council
BC High School Cadigan Hall Project,completed,2015,0,28000,42.3160914,-71.04495782,Boston,Metropolitan Area Planning Council
307 Dorchester Avenue/FW Webb,completed,2015,0,45000,42.33731983,-71.05792877,Boston,Metropolitan Area Planning Council
23-25 and 33-35 Grantley St Condominium Project,completed,2015,16,0,42.24923883,-71.12532525,Boston,Metropolitan Area Planning Council
45 Stuart Street,completed,2015,404,0,42.35141894,-71.06393761,Boston,Metropolitan Area Planning Council
Russo Estates,completed,2015,6,0,42.48591426,-71.13458439,Woburn,Metropolitan Area Planning Council
316-322 Summer Street,completed,2015,0,135600,42.3497282,-71.04857321,Boston,Metropolitan Area Planning Council
Kasanof Bakery - 233 Blue Hill Ave,completed,2015,71,3500,42.31708545,-71.07882652,Boston,Metropolitan Area Planning Council
1 Village Terrace,completed,2015,5,0,42.38061618,-71.10477102,Somerville,Metropolitan Area Planning Council
Central Boston Elder Services,completed,2015,57,0,42.33037458,-71.08444748,Boston,Metropolitan Area Planning Council
Grand view Estates,completed,2015,40,0,42.50903101,-71.02193419,Lynnfield,Metropolitan Area Planning Council
Manor Way Circle Subdivision,completed,2015,3,0,42.22919508,-70.80349218,Cohasset,Metropolitan Area Planning Council
Hillcrest Estates,completed,2015,68,0,42.25401613,-71.49332109,Ashland,Metropolitan Area Planning Council
Riverdale Place,completed,2015,14,0,42.63198129,-70.67457054,Gloucester,Metropolitan Area Planning Council
59 Bonair St,completed,2015,1,,42.38884417,-71.09004921,Somerville,Metropolitan Area Planning Council
JPNDC J5 Building K- 31 Germania Street,completed,2015,35,0,42.31462595,-71.10325321,Boston,Metropolitan Area Planning Council
41-43 Saratoga Street,completed,2015,18,0,42.37600747,-71.03747896,Boston,Metropolitan Area Planning Council
Benchmark Senior Living,completed,2015,87,0,42.493905,-71.12489844,Woburn,Metropolitan Area Planning Council
157 Hancock Street,completed,2015,14,0,42.27947912,-71.0334996,Quincy,Metropolitan Area Planning Council
Ingrid Lane,completed,2015,2,0,42.21901747,-70.75226434,Scituate,Metropolitan Area Planning Council
525 Beach Street Affordable Housing,completed,2015,30,0,42.40952148,-70.99835592,Revere,Metropolitan Area Planning Council
Boston University - East Campus Student Service Center,completed,2015,0,36000,42.34988884,-71.09835126,Boston,Metropolitan Area Planning Council
Badus Brook Subdivision,completed,2015,8,0,42.05600186,-71.33609689,Wrentham,Metropolitan Area Planning Council
2 Washington Street,completed,2015,94,2200,42.44012356,-71.07247627,Melrose,Metropolitan Area Planning Council
Mission on the Bay,completed,2015,0,6282,42.46782849,-70.91715262,Swampscott,Metropolitan Area Planning Council
Trinity Episcopal Church Expansion,completed,2015,0,19105,42.45866254,-71.36455997,Concord,Metropolitan Area Planning Council
150 Green Street,completed,2015,6,0,42.46542733,-71.05938299,Melrose,Metropolitan Area Planning Council
South Shore Medical Center,completed,2015,0,45760,42.15782937,-70.87725882,Norwell,Metropolitan Area Planning Council
188 Lawrence Street,completed,2015,0,17041,42.28085405,-71.40541946,Framingham,Metropolitan Area Planning Council
192 Raymond St,completed,2015,8,0,42.38797889,-71.12760889,Cambridge,Metropolitan Area Planning Council
191 Beal St,completed,2015,0,5500,42.24611849,-70.92099536,Hingham,Metropolitan Area Planning Council
Harrison Commons - Former BC high,completed,2015,136,0,42.33669294,-71.07226127,Boston,Metropolitan Area Planning Council
Deutsches Altenheim Addition,completed,2015,62,0,42.27346613,-71.15907832,Boston,Metropolitan Area Planning Council
Heritage Development Capital Improvements,completed,2015,0,0,42.36877245,-71.03896063,Boston,Metropolitan Area Planning Council
Christa Mcauliffe Charter School - 139 Newbury Street,completed,2015,0,32834,42.30773823,-71.395001,Framingham,Metropolitan Area Planning Council
Dana Farber Cancer Institute,completed,2015,0,275000,42.33758802,-71.10809298,Boston,Metropolitan Area Planning Council
Inwood West Apartments,completed,2015,34,0,42.52783708,-71.13468905,Woburn,Metropolitan Area Planning Council
Kroc Community Center,completed,2015,0,95000,42.31977265,-71.06936409,Boston,Metropolitan Area Planning Council
The Cohasset Village Town Homes,completed,2015,11,0,42.24012889,-70.80360084,Cohasset,Metropolitan Area Planning Council
Russia Wharf,completed,2015,50,660000,42.35320621,-71.05251018,Boston,Metropolitan Area Planning Council
Pudding Hill,completed,2015,66,0,42.09082494,-70.71588611,Marshfield,Metropolitan Area Planning Council
0 Paul Street,completed,2015,1,0,42.2986336,-71.44882405,Framingham,Metropolitan Area Planning Council
R-Way Farm,completed,2015,6,0,42.64792085,-70.81247454,Essex,Metropolitan Area Planning Council
18 Robert Street,completed,2015,14,0,42.28718426,-71.13232652,Boston,Metropolitan Area Planning Council
150 Chestnut Hill Ave,completed,2015,21,0,42.34189073,-71.15353094,Boston,Metropolitan Area Planning Council
"The Levedo Building, 241 Talbot Avenue",completed,2015,24,0,42.29141063,-71.07667282,Boston,Metropolitan Area Planning Council
687-697 Masschusetts Avenue,completed,2015,30,0,42.33519891,-71.07581604,Boston,Metropolitan Area Planning Council
Blessed Sacrament Campus Redevelopment,completed,2015,81,0,42.32307341,-71.10759988,Boston,Metropolitan Area Planning Council
Winter Hollow,completed,2015,7,,42.2670598,-71.47734043,Ashland,Metropolitan Area Planning Council
The Estates at Walpole,completed,2015,196,0,42.16501206,-71.22483051,Walpole,Metropolitan Area Planning Council
Fenway Triangle Mixed Use Project,completed,2015,290,450000,42.3445221,-71.09911268,Boston,Metropolitan Area Planning Council
160-180 Cambridgepark Dr,completed,2015,398,0,42.39447941,-71.14764039,Cambridge,Metropolitan Area Planning Council
Isabella Stewart Gardner Museum,completed,2015,0,50000,42.33849409,-71.09886764,Boston,Metropolitan Area Planning Council
41 Westland Avenue,completed,2015,48,0,42.344002,-71.08780301,Boston,Metropolitan Area Planning Council
881-883 East Second Street,completed,2015,16,0,42.33720665,-71.02782903,Boston,Metropolitan Area Planning Council
1797-1801 Massachusetts Ave (Art Institute),completed,2015,0,74500,42.38642405,-71.11870686,Cambridge,Metropolitan Area Planning Council
44-48 Grove Street,completed,2015,0,5200,42.45322639,-71.06682424,Melrose,Metropolitan Area Planning Council
39/47 Fayette Street,completed,2015,24,0,42.26002602,-71.00418928,Quincy,Metropolitan Area Planning Council
Residences at Constitution Drive,completed,2015,5,0,42.49168401,-71.44952631,Acton,Metropolitan Area Planning Council
Lexus of Hingham,completed,2015,0,60000,42.18116767,-70.9112993,Hingham,Metropolitan Area Planning Council
Wincrest Definitive Subdivision,completed,2015,47,0,42.49726854,-71.08915804,Stoneham,Metropolitan Area Planning Council
North Shore Business Center,completed,2015,0,77000,42.57761714,-70.99524439,Middleton,Metropolitan Area Planning Council
148 Dorchester Avenue,completed,2015,52,0,42.34172108,-71.05672904,Boston,Metropolitan Area Planning Council
Hotel Commonwealth Expansion,completed,2015,0,134000,42.34848811,-71.09565114,Boston,Metropolitan Area Planning Council
95 Eames Street,completed,2015,0,9800,42.26930322,-71.41460647,Framingham,Metropolitan Area Planning Council
Gracie Lane Subdivision,completed,2015,6,0,42.48122924,-70.91107719,Swampscott,Metropolitan Area Planning Council
New Intermodal Center at Hingham Shipyard,completed,2015,0,8400,42.2530892,-70.91933877,Hingham,Metropolitan Area Planning Council
22 Water St (Mac-Grey),completed,2015,392,0,42.3729928,-71.07875742,Cambridge,Metropolitan Area Planning Council
Middlewood ,completed,2015,20,0,42.59279323,-70.92685962,Wenham,Metropolitan Area Planning Council
WAVE project,completed,2015,0,33000,42.47625779,-71.47193292,Acton,Metropolitan Area Planning Council
159 First Street,completed,2015,115,3800,42.36624241,-71.07850063,Cambridge,Metropolitan Area Planning Council
417 South Street,completed,2015,0,145000,42.33297898,-71.54481998,Marlborough,Metropolitan Area Planning Council
Almquist Subdivision,completed,2015,8,,42.23239827,-70.99823521,Braintree,Metropolitan Area Planning Council
450 Kendall St (CRP),completed,2015,0,53000,42.36336418,-71.0815177,Cambridge,Metropolitan Area Planning Council
Lexington Way,completed,2015,7,0,42.14584639,-71.18487061,Sharon,Metropolitan Area Planning Council
17 Morley Street,completed,2015,2,0,42.32921883,-71.09203171,Boston,Metropolitan Area Planning Council
47 Thorndike Street,completed,2015,0,2630,42.33297945,-71.07865254,Boston,Metropolitan Area Planning Council
828 West Central Street,completed,2015,0,3000,42.08965836,-71.43568799,Franklin,Metropolitan Area Planning Council
CVS Pharmacy,completed,2015,0,10000,42.47403311,-71.45047945,Acton,Metropolitan Area Planning Council
Kerrigan Way,completed,2015,7,0,42.4884426,-71.12205637,Woburn,Metropolitan Area Planning Council
Woods Hill Table Restaurant,completed,2015,0,5200,42.45666859,-71.39309214,Concord,Metropolitan Area Planning Council
"Veterinary Dental Services, LLC",completed,2015,0,5074,42.48077654,-71.50799691,Boxborough,Metropolitan Area Planning Council
River Park Lofts,completed,2015,65,10394,42.36869609,-71.19511008,Watertown,Metropolitan Area Planning Council
Residences at Dahlgren Hall at 309 E Street,completed,2015,18,0,42.33717736,-71.04954157,Boston,Metropolitan Area Planning Council
Castle Square,completed,2015,500,0,42.34614025,-71.06797238,Boston,Metropolitan Area Planning Council
Old Colony Phase II,completed,2015,170,0,42.32998296,-71.05187776,Boston,Metropolitan Area Planning Council
381 Congress Street,completed,2015,44,0,42.34956048,-71.04764,Boston,Metropolitan Area Planning Council
West Broadway Redevelopment,completed,2015,133,0,42.34118824,-71.04859362,Boston,Metropolitan Area Planning Council
Roslindale Commons Condominium,completed,2015,12,5000,42.28848909,-71.12632092,Boston,Metropolitan Area Planning Council
90 Smith Street - Basilica Court Renovations,completed,2015,0,38852,42.33374444,-71.09996748,Boston,Metropolitan Area Planning Council
100 Fellsway Wst,completed,2015,19,0,42.39355942,-71.08725467,Somerville,Metropolitan Area Planning Council
The Victor,completed,2015,284,14910,42.36528348,-71.05980665,Boston,Metropolitan Area Planning Council
Church Street Commons,completed,2015,8,4320,42.54718399,-71.17238034,Wilmington,Metropolitan Area Planning Council
Blandino Farms,completed,2015,16,,42.28856212,-71.05619571,Boston,Metropolitan Area Planning Council
Congregacion Leon de Juda Sanctuary,completed,2015,0,20654,42.33442612,-71.07664507,Boston,Metropolitan Area Planning Council
Hingham Municipal Light Plant,completed,2015,0,24000,42.23476231,-70.91778839,Hingham,Metropolitan Area Planning Council
Oliver Lofts (Terrace Street Lofts),completed,2015,175,0,42.32698092,-71.09847176,Boston,Metropolitan Area Planning Council
Nu Life Development,completed,2015,16,3095,42.31101033,-71.08106378,Boston,Metropolitan Area Planning Council
1486 Tremont Street,completed,2015,66,6200,42.33176792,-71.09884951,Boston,Metropolitan Area Planning Council
The Durant Wellesley (change to Belclare Wellesley),completed,2015,25,8000,42.29542258,-71.2927335,Wellesley,Metropolitan Area Planning Council
12 Old Forest Street,completed,2015,1,0,42.59245871,-71.03126344,Middleton,Metropolitan Area Planning Council
Ipswich River Townhouses,completed,2015,14,0,42.57122013,-71.08195431,North Reading,Metropolitan Area Planning Council
Highland Farms,completed,2015,5,0,42.54539075,-71.4777537,Littleton,Metropolitan Area Planning Council
Sage Hill,completed,2015,7,0,42.37068219,-71.36285674,Wayland,Metropolitan Area Planning Council
White Oak Farm,completed,2015,13,0,42.12196237,-70.70263071,Marshfield,Metropolitan Area Planning Council
Annisquam Woods,completed,2015,6,0,42.6582374,-70.66014225,Gloucester,Metropolitan Area Planning Council
25 Hamlet,completed,2015,2,,42.3837035,-71.09287886,Somerville,Metropolitan Area Planning Council
7 Temple St (YWCA),completed,2015,40,0,42.36670778,-71.10442074,Cambridge,Metropolitan Area Planning Council
Northridge Apartments,completed,2015,33,0,42.38215688,-71.56639347,Hudson,Metropolitan Area Planning Council
54 Loomis Street,completed,2015,19,2860,42.48639872,-71.27581033,Bedford,Metropolitan Area Planning Council
285 Great Road,completed,2015,0,3600,42.48663471,-71.26383879,Bedford,Metropolitan Area Planning Council
68 Beale Street,completed,2015,22,0,42.26589999,-71.01826351,Quincy,Metropolitan Area Planning Council
St Elizabeth's Hospital - Connel ED Urgent Care Building,completed,2015,0,46000,42.34889951,-71.14824361,Boston,Metropolitan Area Planning Council
Studley Farm,completed,2015,9,0,42.20482913,-70.79954039,Scituate,Metropolitan Area Planning Council
Innovation and Design Building,completed,2015,0,1400000,42.3442441,-71.03005618,Boston,Metropolitan Area Planning Council
Milford Regional Medical Center,completed,2015,0,115000,42.13366574,-71.52703847,Milford,Metropolitan Area Planning Council
William McKinley Elementary School,completed,2015,0,103200,42.41097404,-71.01670929,Revere,Metropolitan Area Planning Council
Forest Green Estates,completed,2015,29,0,42.59953365,-71.08346889,North Reading,Metropolitan Area Planning Council
Burnham Building,completed,2015,0,370000,42.35558195,-71.05969833,Boston,Metropolitan Area Planning Council
The Gables,completed,2015,296,6777,42.36462292,-71.17391784,Watertown,Metropolitan Area Planning Council
360 West Second Street,completed,2015,25,0,42.33822733,-71.04667631,Boston,Metropolitan Area Planning Council
Quincy Heights,completed,2015,129,0,42.31219511,-71.07355396,Boston,Metropolitan Area Planning Council
lido juice,completed,2015,0,1000,42.24172638,-70.88955772,Hingham,Metropolitan Area Planning Council
Dunmore Place,completed,2015,0,0,42.32563514,-71.07474702,Boston,Metropolitan Area Planning Council
Crosstown Center Phase II,completed,2015,0,200000,42.33297826,-71.07356952,Boston,Metropolitan Area Planning Council
Harvard University - 28 Travis Street,completed,2015,0,80150,42.36215802,-71.12722961,Boston,Metropolitan Area Planning Council
648-656 Saratoga Street,completed,2015,18,0,42.38245483,-71.02126726,Boston,Metropolitan Area Planning Council
Ames Chapel Renovation,completed,2015,0,800,42.24221167,-70.88563587,Hingham,Metropolitan Area Planning Council
Herb Chambers Volvo of Norwood,completed,2015,0,52600,42.17670127,-71.19030027,Norwood,Metropolitan Area Planning Council
Boston Children's Hospital - Binney Street Addition,completed,2015,0,0,42.33828335,-71.10696683,Boston,Metropolitan Area Planning Council
Channel Wharf,completed,2015,45,7000,42.33770217,-71.04437697,Boston,Metropolitan Area Planning Council
crossroads corporate center,completed,2015,0,402000,42.30153313,-71.48418632,Framingham,Metropolitan Area Planning Council
Winsor School:Wellness /Performance Center,completed,2015,0,110000,42.33996056,-71.10702572,Boston,Metropolitan Area Planning Council
Endicott Ice Rink,completed,2015,0,39935,42.55711983,-70.84818347,Beverly,Metropolitan Area Planning Council
263-265 Northampton St.,completed,2015,37,0,42.33954558,-71.08154032,Boston,Metropolitan Area Planning Council
219 Monsignor O'Brien Highway,completed,2015,0,50368,42.37282655,-71.07956878,Cambridge,Metropolitan Area Planning Council
AC Hotel Boston North - Station Landing,completed,2015,0,50000,42.40309025,-71.08141582,Medford,Metropolitan Area Planning Council
The Lancaster at 1501 Commonwealth Avenue,completed,2015,55,0,42.34744867,-71.14123328,Boston,Metropolitan Area Planning Council
Gray Farm Road,completed,2015,53,0,42.5517956,-71.50484984,Littleton,Metropolitan Area Planning Council
Settlers Lane,completed,2015,6,0,42.61307135,-70.8894847,Wenham,Metropolitan Area Planning Council
Emerald Block - FBI Headquartes,completed,2015,0,250000,42.39960055,-71.04039981,Chelsea,Metropolitan Area Planning Council
Toils End/Fox Run subdivision,completed,2015,35,0,42.08477387,-71.3430478,Wrentham,Metropolitan Area Planning Council
181 Massachusetts Ave (Novartis),completed,2015,0,572663,42.36177912,-71.09597205,Cambridge,Metropolitan Area Planning Council
White Ash Farm,completed,2015,3,0,42.19523785,-70.75668138,Scituate,Metropolitan Area Planning Council
Waters Edge Apartments - 1350 Worcester Road,completed,2015,300,0,42.29379201,-71.46855014,Framingham,Metropolitan Area Planning Council
Mechanic Lofts,completed,2015,34,0,42.24677046,-70.99933172,Quincy,Metropolitan Area Planning Council
Boston University - New Balance Field,completed,2015,0,141068,42.35318959,-71.12173493,Boston,Metropolitan Area Planning Council
Glover Place,completed,2015,10,0,42.18992957,-71.3091762,Medfield,Metropolitan Area Planning Council
Summer Valley Lane,completed,2015,2,0,42.14192731,-71.44352706,Medway,Metropolitan Area Planning Council
267-269 Humphrey St,completed,2015,3,0,42.46673756,-70.91368069,Swampscott,Metropolitan Area Planning Council
158-160 Essex St,completed,2015,3,0,42.47710586,-70.92004561,Swampscott,Metropolitan Area Planning Council
North Reading Middle-High School,completed,2015,0,73900,42.57605059,-71.08858112,North Reading,Metropolitan Area Planning Council
MassDOT I-93 Viaduct Parking Lots,completed,2015,0,0,42.34122248,-71.06272034,Boston,Metropolitan Area Planning Council
Union Corners,completed,2015,6,0,42.46806249,-70.93932242,Lynn,Metropolitan Area Planning Council
Reynolds Farm,completed,2015,12,0,42.20251811,-71.24617314,Westwood,Metropolitan Area Planning Council
1881 Worcester Road Parking Lot Expansion,completed,2015,0,,42.29785404,-71.48576959,Framingham,Metropolitan Area Planning Council
Christian Way,completed,2015,3,0,42.21241764,-71.58180708,Hopkinton,Metropolitan Area Planning Council
Pleasant Plaza,completed,2015,307,30000,42.4267878,-71.06801264,Malden,Metropolitan Area Planning Council
Crossroads Place,completed,2015,0,5700,42.12770929,-71.51853452,Milford,Metropolitan Area Planning Council
Harvard University: Arnold Arboretum Research Building,completed,2015,0,40000,42.30064648,-71.12312279,Boston,Metropolitan Area Planning Council
BIDMC - Bowdoin Street Health Center,completed,2015,0,4100,42.30587715,-71.06782831,Boston,Metropolitan Area Planning Council
Stop&Shop (Hyde Park),completed,2015,0,68818,42.24252751,-71.12723985,Boston,Metropolitan Area Planning Council
336 Humphrey St,completed,2015,2,0,42.46772452,-70.91190014,Swampscott,Metropolitan Area Planning Council
TD Bank - 1112 Main Street,completed,2015,0,2900,42.45643718,-71.38815049,Concord,Metropolitan Area Planning Council
Atlantic Crossing Subdivision,completed,2015,14,0,42.47288995,-70.89406638,Swampscott,Metropolitan Area Planning Council
Hanover Vinnin Square,completed,2015,184,0,42.47919639,-70.90736351,Swampscott,Metropolitan Area Planning Council
Norwood Acres,completed,2015,2,0,42.14892762,-71.44573369,Medway,Metropolitan Area Planning Council
1100 VFW Parkway (Gordon's Wood),completed,2015,42,0,42.28395893,-71.17140596,Boston,Metropolitan Area Planning Council
interior fit-out,completed,2015,0,3000,42.24876034,-70.90382395,Hingham,Metropolitan Area Planning Council
47 Waltham Street,completed,2015,1,0,42.34220722,-71.06918829,Boston,Metropolitan Area Planning Council
Georgetowne Homes Preservation Project,completed,2015,967,0,42.25840807,-71.1467721,Boston,Metropolitan Area Planning Council
LA Fitness Club (West Roxbury),completed,2015,0,48900,42.27824761,-71.16915937,Boston,Metropolitan Area Planning Council
4040 Washington Street,completed,2015,28,0,42.29130832,-71.12231624,Boston,Metropolitan Area Planning Council
Nazing Court Apartments,completed,2015,151,0,42.307179,-71.08765244,Boston,Metropolitan Area Planning Council
9 Glen Street,completed,2015,2,0,42.27292433,-71.39641335,Framingham,Metropolitan Area Planning Council
Cimpress Office Building,completed,2015,0,315000,42.40584492,-71.25581726,Waltham,Metropolitan Area Planning Council
66 Sleeper Street,completed,2015,0,85890,42.35259894,-71.04615892,Boston,Metropolitan Area Planning Council
36 River Street,completed,2015,200,0,42.36757479,-71.21697293,Waltham,Metropolitan Area Planning Council
22-26 West Broadway Street,completed,2015,31,3834,42.3428041,-71.05664344,Boston,Metropolitan Area Planning Council
1522 VFW Parkway,completed,2015,15,0,42.26856295,-71.17097185,Boston,Metropolitan Area Planning Council
162 Santilli Hwy - (Best Buy),completed,2015,0,30038,42.40348003,-71.06767325,Everett,Metropolitan Area Planning Council
376 West Fourth Street,completed,2015,18,0,42.3370799,-71.04975581,Boston,Metropolitan Area Planning Council
Ridge Estates,completed,2015,7,0,42.07175341,-71.34514019,Wrentham,Metropolitan Area Planning Council
E Street Self Storage,completed,2015,0,98000,42.34048408,-71.04750608,Boston,Metropolitan Area Planning Council
22 Liberty (Fan Pier),completed,2015,118,0,42.3547,-71.0454,Boston,Metropolitan Area Planning Council
MGH Museum and History Center,completed,2015,0,8000,42.36191342,-71.06828228,Boston,Metropolitan Area Planning Council
Proprietors Market Place,completed,2015,0,34000,42.10351389,-70.74339034,Marshfield,Metropolitan Area Planning Council
Newbridge Village at 855 Main Street,completed,2015,91,0,42.50475596,-71.15904808,Woburn,Metropolitan Area Planning Council
Walden Woods at Stenbeck Place,completed,2015,28,0,42.19512382,-70.73243167,Scituate,Metropolitan Area Planning Council
Quonahassit Trail,completed,2015,6,0,42.24256315,-70.81612391,Cohasset,Metropolitan Area Planning Council
Assembly Row: Block 11 (Phase 1),completed,2015,0,874297,42.3916,-71.0786,Somerville,Metropolitan Area Planning Council
415 McClellan Highway,completed,2015,0,117060,42.3901,-71.0127,Boston,Metropolitan Area Planning Council
East Lenox St. & Washington St.,completed,2015,25,1450,42.33613578,-71.08010231,Boston,Metropolitan Area Planning Council
525-527 East Second Street Condominiums,completed,2015,13,0,42.33702715,-71.04216112,Boston,Metropolitan Area Planning Council
Wheelock College - Resource Center,completed,2015,0,6545,42.34294681,-71.10523423,Boston,Metropolitan Area Planning Council
Lord Hobo Brewery,completed,2015,0,47000,42.47621035,-71.12887817,Woburn,Metropolitan Area Planning Council
Needham Bank Expansion,completed,2015,0,12363,42.28066278,-71.23811877,Needham,Metropolitan Area Planning Council
St Mark's School STEM building,completed,2015,0,29000,42.30964597,-71.53401857,Southborough,Metropolitan Area Planning Council
Joslin Diabetes Center Expansion Project (Phase 1),completed,2015,189,350000,42.33865914,-71.10831661,Boston,Metropolitan Area Planning Council
136-146 Northern Ave,completed,2015,369,0,42.350951,-71.042982,Boston,Metropolitan Area Planning Council
72-74 London,completed,2015,6,0,42.3719154,-71.0405025,Boston,Metropolitan Area Planning Council
Boston University - School of Law,completed,2015,0,93525,42.35063597,-71.10656723,Boston,Metropolitan Area Planning Council
Staples (Roslindale),completed,2015,0,19300,42.28839962,-71.12705724,Boston,Metropolitan Area Planning Council
"CarMax Auto Superstores, Inc.",completed,2015,0,135200,42.16774286,-71.19503679,Norwood,Metropolitan Area Planning Council
Bay Oaks,completed,2015,4,0,42.15702949,-71.4679309,Medway,Metropolitan Area Planning Council
130 Cabot,completed,2015,11,4000,42.54665686,-70.8800805,Beverly,Metropolitan Area Planning Council
Lifetime Fitness - 432/490 Old Connecticut Path,completed,2015,0,137300,42.31281034,-71.39463321,Framingham,Metropolitan Area Planning Council
Bernardi Toyota - 1626 Worcester Road,completed,2015,0,50536,42.29593882,-71.47193657,Framingham,Metropolitan Area Planning Council
34-36 St. James Street in Roxbury,completed,2015,4,0,42.32616964,-71.0857478,Boston,Metropolitan Area Planning Council
125 Newbury Street,completed,2015,0,15,42.30735318,-71.39624114,Framingham,Metropolitan Area Planning Council
"Longwood Center - Research, Clinical, Retail & Parking",completed,2015,0,414000,42.33902848,-71.10810529,Boston,Metropolitan Area Planning Council
Bass River Estates,completed,2015,11,0,42.54685558,-70.8910989,Beverly,Metropolitan Area Planning Council
429 Gallivan Blvd,completed,2015,18,0,42.28148838,-71.05938413,Boston,Metropolitan Area Planning Council
Village of the Americas,completed,2015,528,21000,42.25398105,-71.45164751,Ashland,Metropolitan Area Planning Council
39 Grant Street,completed,2015,79,0,42.27934079,-71.41094682,Framingham,Metropolitan Area Planning Council
Chestnut Hill Square,completed,2015,91,243000,42.318906,-71.175186,Newton,Metropolitan Area Planning Council
Walpole Mall Expansion,completed,2015,0,120000,42.15447212,-71.20240464,Walpole,Metropolitan Area Planning Council
79 Rogers Ave,completed,2015,3,,42.39795236,-71.11220448,Somerville,Metropolitan Area Planning Council
60-66 Brainerd Road,completed,2015,79,0,42.34745249,-71.13312962,Boston,Metropolitan Area Planning Council
1019 Trapelo Road,completed,2015,0,9750,42.4111826,-71.2332094,Waltham,Metropolitan Area Planning Council
85 West Main St.,completed,2015,0,7430,42.21687832,-71.54136495,Hopkinton,Metropolitan Area Planning Council
26 Weston Ave,completed,2015,16,0,42.40323058,-71.12877256,Somerville,Metropolitan Area Planning Council
Market Street at Lynnfield,completed,2015,180,475000,42.5190877,-71.03550195,Lynnfield,Metropolitan Area Planning Council
"CVS - 480-498 Concord Street, 7 Lindbergh",completed,2015,0,15195,42.28901258,-71.40970843,Framingham,Metropolitan Area Planning Council
The Village At Magnolia Shores,completed,2015,44,0,42.58448507,-70.71062479,Gloucester,Metropolitan Area Planning Council
10-18 Merrymount Road,completed,2015,23,0,42.25661265,-71.00647167,Quincy,Metropolitan Area Planning Council
Charlesview Redevelopment,completed,2015,340,0,42.36319913,-71.13888862,Boston,Metropolitan Area Planning Council
1 Worcester Road - Peir 1 Imports,completed,2015,0,15000,42.30185748,-71.3954529,Framingham,Metropolitan Area Planning Council
Target Superstore,completed,2015,0,139000,42.58946185,-71.16059496,Wilmington,Metropolitan Area Planning Council
Orchard Homeownership Initiative,completed,2015,20,,42.32777266,-71.07643774,Boston,Metropolitan Area Planning Council
30 Hazelwood,completed,2015,2,0,42.31758928,-71.0842969,Boston,Metropolitan Area Planning Council
11 East ST,completed,2015,0,4200,42.59640579,-70.99217698,Middleton,Metropolitan Area Planning Council
Chic-fil-A,completed,2015,0,4815,42.3033,-71.3985,Framingham,Metropolitan Area Planning Council
208 Dudley Street,completed,2015,0,1920,42.32868545,-71.08107535,Boston,Metropolitan Area Planning Council
Continuum ,completed,2015,325,45000,42.36345542,-71.1303928,Boston,Metropolitan Area Planning Council
University Station,completed,2015,728,850000,42.20729346,-71.15278689,Westwood,Metropolitan Area Planning Council
"246 Boston Street, ",completed,2015,9,0,42.32142635,-71.06116696,Boston,Metropolitan Area Planning Council
Allied Waste Systems Transfer Station,completed,2015,0,40000,42.32847425,-71.07304598,Boston,Metropolitan Area Planning Council
Massachusetts General Hospital - Building for 3rd Century,completed,2015,0,0,42.36269128,-71.06967293,Boston,Metropolitan Area Planning Council
18 Robert st,completed,2015,12,0,42.287437,-71.132841,Boston,Metropolitan Area Planning Council
Quincy Commons 202,completed,2015,40,0,42.314774,-71.078457,Boston,Metropolitan Area Planning Council
125 Condor Street,completed,2015,7,0,42.38241495,-71.03545195,Boston,Metropolitan Area Planning Council
Jack Flats,completed,2015,212,0,42.44342979,-71.07109176,Melrose,Metropolitan Area Planning Council
Bruce C. Bolling Municipal Building,completed,2015,0,200000,42.33014892,-71.08366304,Boston,Metropolitan Area Planning Council
GrandMarc Residence Hall at Northeastern University,completed,2015,0,0,42.34076433,-71.08702578,Boston,Metropolitan Area Planning Council
14 I Street,completed,2015,9,0,42.337587,-71.039862,Boston,Metropolitan Area Planning Council
Harvard University (Allston): Baker/Esteves Hall,completed,2015,0,0,42.3672399,-71.12049328,Boston,Metropolitan Area Planning Council
267 Medford,completed,2015,121,0,42.381307,-71.06155,Boston,Metropolitan Area Planning Council
400 Western Avenue,completed,2015,20,0,42.3621384,-71.13906042,Boston,Metropolitan Area Planning Council
77-91 Seaport Blvd,completed,2015,346,0,42.35198614,-71.04493931,Boston,Metropolitan Area Planning Council
30-36 Traveler St,completed,2015,77,0,42.34453614,-71.0635711,Boston,Metropolitan Area Planning Council
516 Columbia Rd,completed,2015,33,0,42.31522076,-71.06721787,Boston,Metropolitan Area Planning Council
10-30 Gleason,completed,2015,8,0,42.2978243,-71.08218133,Boston,Metropolitan Area Planning Council
Williamsburg Condominium,completed,2015,18,0,42.14299922,-71.45811659,Medway,Metropolitan Area Planning Council
861 E Second,completed,2015,6,0,42.33727018,-71.02847725,Boston,Metropolitan Area Planning Council
22-26 Hawthorne,completed,2015,8,0,42.32424238,-71.09149655,Boston,Metropolitan Area Planning Council
8 Dustin,completed,2015,9,0,42.35114176,-71.14631659,Boston,Metropolitan Area Planning Council
109-123 Dresser,completed,2015,5,0,42.33730157,-71.04429733,Boston,Metropolitan Area Planning Council
585 E Seventh St,completed,2015,5,0,42.332108,-71.036843,Boston,Metropolitan Area Planning Council
"51 Chelsa, east boston ",completed,2015,8,0,42.37105014,-71.03706319,Boston,Metropolitan Area Planning Council
"53 Chelsa, east boston ",completed,2015,8,0,42.37110459,-71.03703421,Boston,Metropolitan Area Planning Council
15 Preble St,completed,2015,9,0,42.329177,-71.056481,Boston,Metropolitan Area Planning Council
191 W Eighth,completed,2015,6,0,42.333548,-71.052115,Boston,Metropolitan Area Planning Council
17-25  Piedmont St ,completed,2015,8,0,42.34983833,-71.06824238,Boston,Metropolitan Area Planning Council
2 G ST,completed,2015,4,0,42.33619537,-71.04417787,Boston,Metropolitan Area Planning Council
"115 Pleasant, Boston, MA 02128",completed,2015,6,0,42.31171687,-71.05938084,Boston,Metropolitan Area Planning Council
48 Gold St,completed,2015,9,0,42.33986654,-71.05519699,Boston,Metropolitan Area Planning Council
Forest Hills Parcel V&W,completed,2015,0,48000,42.29763843,-71.11662354,Boston,Metropolitan Area Planning Council
"Cambridgepark Dr., #165 Phased",completed,2015,247,0,42.39560317,-71.14751181,Cambridge,Metropolitan Area Planning Council
Canton Street Group Home,completed,2015,1,0,42.1363049,-71.17187544,Sharon,Metropolitan Area Planning Council
1 Education St.,completed,2015,0,295000,42.36980516,-71.06872473,Cambridge,Metropolitan Area Planning Council
Parcel 24,completed,2015,217,0,42.34946354,-71.06031339,Boston,Metropolitan Area Planning Council
261 LEXINGTON,completed,2015,6,0,42.380337,-71.030264,Boston,Metropolitan Area Planning Council
20 Child St. / North Point Bldg N,completed,2015,355,8257,42.37160137,-71.0714754,Cambridge,Metropolitan Area Planning Council
500 Beach Street,completed,2015,7,0,42.410148,-70.998929,Revere,Metropolitan Area Planning Council
473 Revere Beach Parkway,completed,2015,8,0,42.40451964,-71.00236677,Revere,Metropolitan Area Planning Council
Salem Point ,completed,2015,77,0,42.51483594,-70.89287304,Salem,Metropolitan Area Planning Council
Pier 4 - Phase 1,completed,2015,369,12600,42.35118784,-71.04320302,Boston,Metropolitan Area Planning Council
Umass Boston General Academic Building No. 1 (University Hall),completed,2015,0,181000,42.31323261,-71.035231,Boston,Metropolitan Area Planning Council
The Learning Tree,completed,2015,0,1,42.14741148,-71.42559938,Medway,Metropolitan Area Planning Council
Fort Point Place,completed,2015,126,0,42.34711156,-71.05012778,Boston,Metropolitan Area Planning Council
Homewood Suites,completed,2015,0,130000,42.20755912,-71.12219725,Canton,Metropolitan Area Planning Council
319 A Street Rear,completed,2015,203,0,42.34868057,-71.04831444,Boston,Metropolitan Area Planning Council
49-63 Melcher Street,completed,2015,52,113100,42.34944696,-71.05033269,Boston,Metropolitan Area Planning Council
The Highlands at Canton Meadows,completed,2015,196,0,42.18116876,-71.08533197,Canton,Metropolitan Area Planning Council
Seaport Square: Parcel L1 / 101 Seaport Boulevard,completed,2015,0,455300,42.35109546,-71.04545864,Boston,Metropolitan Area Planning Council
Orchard Cove,completed,2015,45,0,42.17099122,-71.11315169,Canton,Metropolitan Area Planning Council
143 Cedar Street,completed,2015,10,0,42.39340037,-71.11127369,Somerville,Metropolitan Area Planning Council
97 Prospect Street,completed,2015,7,0,42.37559977,-71.09684421,Somerville,Metropolitan Area Planning Council
39 Cameron/43 Elmwood,completed,2015,7,0,42.3993162,-71.12718117,Somerville,Metropolitan Area Planning Council
170 School Street,completed,2015,5,0,42.388994,-71.097521,Somerville,Metropolitan Area Planning Council
595 Somerville Ave,completed,2015,4,0,42.38401395,-71.10920746,Somerville,Metropolitan Area Planning Council
168 School Street,completed,2015,22,0,42.24393658,-71.00794071,Quincy,Metropolitan Area Planning Council
Meadowview Estates Subdivision,completed,2015,5,0,42.07538786,-71.30039501,Wrentham,Metropolitan Area Planning Council
92 Lafayette Street,completed,2015,8,0,42.51838058,-70.89361053,Salem,Metropolitan Area Planning Council
292 Beacon St,completed,2015,2,0,42.38340886,-71.11306344,Somerville,Metropolitan Area Planning Council
308 Beacon St,completed,2015,6,0,42.38390471,-71.11368454,Somerville,Metropolitan Area Planning Council
Wentworth - Ira Allen Building Addition,completed,2015,0,18000,42.33617801,-71.09391727,Boston,Metropolitan Area Planning Council
Convention Center Hotel,completed,2015,0,34000,42.3459953,-71.04331329,Boston,Metropolitan Area Planning Council
120 Waverly Street - Framingham Salvage Co.,completed,2015,0,11461,42.27924704,-71.40403879,Framingham,Metropolitan Area Planning Council
140 Cambridgepark Drive Garage,completed,2015,0,0,42.39404098,-71.14642116,Cambridge,Metropolitan Area Planning Council
Wentworth - Flanagan Campus Center at Beatty Hall,completed,2015,0,30000,42.33559602,-71.09562923,Boston,Metropolitan Area Planning Council
Riverside,completed,2015,1,0,42.47139273,-71.63155062,Bolton,Metropolitan Area Planning Council
Ridgecrest Village Apartments,completed,2015,48,0,42.25857241,-71.15051867,Boston,Metropolitan Area Planning Council
Roxbury Tenants of Harvard Community Center,completed,2015,0,28000,42.33508172,-71.10945438,Boston,Metropolitan Area Planning Council
Salem Waterfront Hotel Expansion,cancelled,2016,0,72574,42.51975986,-70.89013522,Salem,Metropolitan Area Planning Council
Boston Landing - 80 Guest Street,completed,2016,0,297000,42.35721156,-71.14236286,Boston,Metropolitan Area Planning Council
Holiday Inn Express Expansion - 385 Winter Street,completed,2016,0,17875,42.39852649,-71.25853627,Waltham,Metropolitan Area Planning Council
Ashland Woods,completed,2016,48,0,42.24287357,-71.48522059,Ashland,Metropolitan Area Planning Council
Residences at Malden Station,completed,2016,84,,42.4276492,-71.07364894,Malden,Metropolitan Area Planning Council
Hampton Inn,completed,2016,0,15000,42.40128584,-71.00645878,Revere,Metropolitan Area Planning Council
Knight Circle,completed,2016,2,0,42.57757812,-70.77070471,Manchester,Metropolitan Area Planning Council
Beauport Hotel Gloucester,completed,2016,0,85464,42.60947458,-70.66539563,Gloucester,Metropolitan Area Planning Council
Olmsted Place (161 South Huntington),completed,2016,196,49000,42.32692796,-71.11190173,Boston,Metropolitan Area Planning Council
Boston College - McMullen Museum and University Conference Space,completed,2016,0,7100,42.33940664,-71.16512666,Boston,Metropolitan Area Planning Council
Centre Lamartine,completed,2016,30,7900,42.32258784,-71.1009875,Boston,Metropolitan Area Planning Council
The Washingtons Apartments,completed,2016,182,,42.44012354,-71.07247627,Melrose,Metropolitan Area Planning Council
30 Dalton St,completed,2016,222,1351,42.34594508,-71.08474982,Boston,Metropolitan Area Planning Council
One Upland,completed,2016,262,,42.20529745,-71.20546046,Norwood,Metropolitan Area Planning Council
55 Seaport Boulevard,completed,2016,0,13550,42.35258583,-71.04785625,Boston,Metropolitan Area Planning Council
Port Landing,completed,2016,20,0,42.36550941,-71.09372154,Cambridge,Metropolitan Area Planning Council
Pine Meadow Medway,completed,2016,8,0,42.14431008,-71.45208596,Medway,Metropolitan Area Planning Council
160 Green Street,completed,2016,6,0,42.46557501,-71.05959869,Melrose,Metropolitan Area Planning Council
Hingham Affordable Housing Trust,completed,2016,8,0,42.24170147,-70.91007364,Hingham,Metropolitan Area Planning Council
Monsen Road Subdivision,completed,2016,8,0,42.47382691,-71.32579668,Concord,Metropolitan Area Planning Council
Ice House Landing,completed,2016,60,0,42.34398449,-71.57224461,Marlborough,Metropolitan Area Planning Council
Marriott Hotel,completed,2016,0,105652,42.36291027,-71.15490109,Watertown,Metropolitan Area Planning Council
Mass College of Art - Design & Media Center,completed,2016,0,40000,42.33679668,-71.09960518,Boston,Metropolitan Area Planning Council
One North of Boston Phase 2 - 150 Heard Street,completed,2016,222,0,42.39961444,-71.03714925,Chelsea,Metropolitan Area Planning Council
Horseshoe Farm,completed,2016,24,0,42.15411306,-70.75345964,Marshfield,Metropolitan Area Planning Council
DECO (625 Thomas Burgin Parkway),completed,2016,180,0,42.23424526,-71.00864106,Quincy,Metropolitan Area Planning Council
Avalon Bay on Quarry Street,completed,2016,398,0,42.24809579,-71.01715663,Quincy,Metropolitan Area Planning Council
The Eddy,completed,2016,259,0,42.37121432,-71.0439642,Boston,Metropolitan Area Planning Council
Triple 9 Brookside,completed,2016,53,0,42.25752112,-71.00874296,Quincy,Metropolitan Area Planning Council
Artis Senior Living,completed,2016,0,36125,42.54247908,-71.10501757,Reading,Metropolitan Area Planning Council
407-413 Pleasant Street,completed,2016,2,0,42.44994721,-71.07027989,Melrose,Metropolitan Area Planning Council
Rock Chapel Marine,completed,2016,0,5349,42.38625979,-71.03393655,Chelsea,Metropolitan Area Planning Council
Endicott College Dorm,completed,2016,49,94700,42.55641906,-70.8461451,Beverly,Metropolitan Area Planning Council
11 On the Dot,completed,2016,30,0,42.33721153,-71.04375635,Boston,Metropolitan Area Planning Council
Brierneck Crossing,completed,2016,12,0,42.62412645,-70.63046133,Gloucester,Metropolitan Area Planning Council
Acorn Estates at Canton Hills ,completed,2016,25,0,42.18239909,-71.08810222,Canton,Metropolitan Area Planning Council
300 Massachusetts Ave (University Park Millenium Bldg),completed,2016,0,218500,42.3619907,-71.09891088,Cambridge,Metropolitan Area Planning Council
Benfield Farms,completed,2016,26,,42.50916976,-71.38017217,Carlisle,Metropolitan Area Planning Council
Post Office Square,completed,2016,12,0,42.48861479,-71.42379521,Acton,Metropolitan Area Planning Council
Redevelopment of 130/180 Third Avenue,completed,2016,0,399000,42.39249757,-71.26077034,Waltham,Metropolitan Area Planning Council
The Whitwell,completed,2016,15,0,42.35958672,-71.06415716,Boston,Metropolitan Area Planning Council
45 Marion Street,completed,2016,64,0,42.34037729,-71.12371508,Brookline,Metropolitan Area Planning Council
Amazon Distribution Center - (201 Beecham Street),completed,2016,0,206622,42.39353615,-71.05323506,Everett,Metropolitan Area Planning Council
3 Webster,completed,2016,6,0,42.52716462,-70.88889869,Salem,Metropolitan Area Planning Council
267 Great Road,completed,2016,0,3605,42.49543444,-71.41556935,Acton,Metropolitan Area Planning Council
"Wingate Senior Living at Needham, Inc.",completed,2016,52,0,42.30117275,-71.23102412,Needham,Metropolitan Area Planning Council
MGH Building for Third Century - 255 Charles Street,completed,2016,0,530000,42.36315524,-71.06852783,Boston,Metropolitan Area Planning Council
Grimes Crossing,completed,2016,27,0,42.1563984,-71.14080106,Canton,Metropolitan Area Planning Council
Hayward Place,completed,2016,277,19000,42.35337869,-71.06198676,Boston,Metropolitan Area Planning Council
"Jackson Square: Phase I, 1562 Columbus Ave (Jackson Commons)",completed,2016,37,12000,42.32293059,-71.09811419,Boston,Metropolitan Area Planning Council
Connelly Hill Estates,completed,2016,60,0,42.19833319,-71.49600825,Hopkinton,Metropolitan Area Planning Council
The Boston Conservatory - 132 Ipswich Street,completed,2016,0,20000,42.34722004,-71.09381804,Boston,Metropolitan Area Planning Council
Black Birch Phase I,completed,2016,25,0,42.43758866,-71.42141625,Concord,Metropolitan Area Planning Council
2 Sharp St,completed,2016,0,5750,42.16198266,-70.91631379,Hingham,Metropolitan Area Planning Council
888 Boylston Street,completed,2016,0,425000,42.3481873,-71.08297352,Boston,Metropolitan Area Planning Council
Roxbury Latin Athletic Facilities Expansion,completed,2016,0,47580,42.27560454,-71.15643414,Boston,Metropolitan Area Planning Council
Seaport Square: Parcel K (Watermark),completed,2016,346,25000,42.35167453,-71.04623534,Boston,Metropolitan Area Planning Council
Preserve at Oregon,completed,2016,24,,42.28213827,-71.49392136,Ashland,Metropolitan Area Planning Council
Modera Natick Center,completed,2016,138,,42.28943444,-71.35331385,Natick,Metropolitan Area Planning Council
Main & Winter,completed,2016,0,275000,42.20123225,-70.95426414,Weymouth,Metropolitan Area Planning Council
The Meadows at Acton,completed,2016,26,0,42.49466063,-71.41506798,Acton,Metropolitan Area Planning Council
339 D Street,completed,2016,24,0,42.34022616,-71.04882275,Boston,Metropolitan Area Planning Council
Medford Mews,completed,2016,347,0,42.40742647,-71.07559133,Medford,Metropolitan Area Planning Council
Ballardvale Office Park,completed,2016,0,12000,42.58976314,-71.15553692,Wilmington,Metropolitan Area Planning Council
Lucky Strike Residential Project,completed,2016,22,7875,42.29941024,-71.05863259,Boston,Metropolitan Area Planning Council
Talia Apartments,completed,2016,225,0,42.33568164,-71.59191257,Marlborough,Metropolitan Area Planning Council
49-51 Waltham,completed,2016,6,0,42.41950366,-71.45970269,Maynard,Metropolitan Area Planning Council
Everett Community Health and Wellness Center,completed,2016,0,325000,42.4106627,-71.05372939,Everett,Metropolitan Area Planning Council
The Residences at Hooper Mansion,completed,2016,6,0,42.35175978,-71.08730354,Boston,Metropolitan Area Planning Council
20 Fort Street,completed,2016,17,0,42.24420572,-71.00658632,Quincy,Metropolitan Area Planning Council
Everly Apartments (14 Audubon Rd),completed,2016,186,0,42.51542373,-71.04325386,Wakefield,Metropolitan Area Planning Council
"100 Putnam Ave. / MLK, JR. School",completed,2016,0,169221,42.3666148,-71.11481562,Cambridge,Metropolitan Area Planning Council
15 - 33 Richdale Ave.,completed,2016,46,0,42.38860181,-71.12208503,Cambridge,Metropolitan Area Planning Council
Verb Hotel,completed,2016,184,4000,42.34530629,-71.0969356,Boston,Metropolitan Area Planning Council
130 Tremont Street,completed,2016,26,0,42.46345495,-71.06989471,Melrose,Metropolitan Area Planning Council
60 State Street,completed,2016,0,250,42.35936066,-71.05639249,Boston,Metropolitan Area Planning Council
33 Cottage Park Ave.,completed,2016,67,0,42.39833084,-71.13376544,Cambridge,Metropolitan Area Planning Council
Vanguard at Waterfront Square,completed,2016,166,0,42.41719783,-70.98907664,Revere,Metropolitan Area Planning Council
Washington Place Condominiums,completed,2016,22,2500,42.4141856,-71.03215391,Revere,Metropolitan Area Planning Council
Lovejoy Wharf - Hoffman Building,completed,2016,0,207730,42.36703034,-71.06008609,Boston,Metropolitan Area Planning Council
Bloomfield Gardens,completed,2016,27,,42.299574,-71.06541234,Boston,Metropolitan Area Planning Council
Envoy Hotel,completed,2016,0,17778,42.35366644,-71.04832812,Boston,Metropolitan Area Planning Council
Rumney Flats Apartments,completed,2016,231,0,42.42539233,-71.00608371,Revere,Metropolitan Area Planning Council
The Academy at Penguin Hall,completed,2016,0,105000,42.59347887,-70.84704216,Wenham,Metropolitan Area Planning Council
Marriott Hotel,completed,2016,0,82370,42.46229545,-71.38938857,Concord,Metropolitan Area Planning Council
92 Franklin Street,completed,2016,3,0,42.46707285,-71.062911,Melrose,Metropolitan Area Planning Council
McKay School Redevelopment,completed,2016,32,0,42.56416024,-70.89303644,Beverly,Metropolitan Area Planning Council
197 Union Square,completed,2016,30,3502,42.37925384,-71.09553012,Somerville,Metropolitan Area Planning Council
200 Boston Avenue,completed,2016,0,60000,42.41556021,-71.12672433,Medford,Metropolitan Area Planning Council
488 Dorchester Avenue,completed,2016,33,2091,42.33203273,-71.05665995,Boston,Metropolitan Area Planning Council
189 Broadway Senior Housing,completed,2016,39,0,42.40621375,-71.01443287,Revere,Metropolitan Area Planning Council
Blanchard Farm Estates,completed,2016,11,0,42.20938568,-70.76338425,Scituate,Metropolitan Area Planning Council
Lofts at 888 Tremont Street,completed,2016,9,0,42.33778971,-71.08253816,Boston,Metropolitan Area Planning Council
Waltham Landing,completed,2016,34,8260,42.26943182,-71.09155591,Boston,Metropolitan Area Planning Council
Excel Academy Charter Middle and High School,completed,2016,0,70000,42.3784304,-71.02681878,Boston,Metropolitan Area Planning Council
Jonathan's Landing ,completed,2016,318,,42.19884315,-70.99648603,Braintree,Metropolitan Area Planning Council
Bridgeview Center,completed,2016,60,10000,42.37886861,-71.07138324,Boston,Metropolitan Area Planning Council
"Brookside Square, 50 Beharrell",completed,2016,74,30000,42.45842643,-71.39502694,Concord,Metropolitan Area Planning Council
Peloquin Estates,completed,2016,9,0,42.22761972,-71.48838757,Hopkinton,Metropolitan Area Planning Council
Residences at Quail Ridge,completed,2016,174,0,42.50755572,-71.42178481,Acton,Metropolitan Area Planning Council
270 Third St.,completed,2016,91,8506,42.36598839,-71.081663,Cambridge,Metropolitan Area Planning Council
Brighton Landing - South Parking Garage,completed,2016,0,0,42.3567634,-71.14679671,Boston,Metropolitan Area Planning Council
Maria Sanchez House,completed,2016,40,0,42.33227896,-71.09591302,Boston,Metropolitan Area Planning Council
The Tremont (32 Second Ave),completed,2016,180,0,42.485702,-71.22291632,Burlington,Metropolitan Area Planning Council
82 Highland Ave,completed,2016,6,0,42.38627162,-71.09775738,Somerville,Metropolitan Area Planning Council
42 Main St.,completed,2016,0,14,42.22898716,-71.52122163,Hopkinton,Metropolitan Area Planning Council
Mariano Drive,completed,2016,3,0,42.55656567,-71.11231411,Reading,Metropolitan Area Planning Council
Angier Elementary School,completed,2016,0,23000,42.32650382,-71.2326188,Newton,Metropolitan Area Planning Council
Lower Mills Apartments,completed,2016,177,0,42.27300001,-71.06731162,Boston,Metropolitan Area Planning Council
Parc at Medfield,completed,2016,92,0,42.19104998,-71.32853037,Medfield,Metropolitan Area Planning Council
600 Harrison Avenue,completed,2016,160,3600,42.34025123,-71.06764529,Boston,Metropolitan Area Planning Council
75 | 125 Binney,completed,2016,0,380000,42.36585586,-71.08055241,Cambridge,Metropolitan Area Planning Council
Cape Ann Forge,completed,2016,10,0,42.6184911,-70.67743681,Gloucester,Metropolitan Area Planning Council
Collin Farm - 505 Pleasant Street,completed,2016,8,0,42.30464974,-71.45953746,Framingham,Metropolitan Area Planning Council
Millbrook Lofts,completed,2016,100,0,42.37415873,-71.08698225,Somerville,Metropolitan Area Planning Council
380 Bunker Hill Street Charlestown Armory,completed,2016,42,0,42.38220759,-71.0688416,Boston,Metropolitan Area Planning Council
1085 Boylston Street,completed,2016,30,0,42.34721495,-71.08895916,Boston,Metropolitan Area Planning Council
The Residences at St. Augustine,completed,2016,29,0,42.33327004,-71.05089846,Boston,Metropolitan Area Planning Council
Jack's Abby,completed,2016,0,0,42.2802,-71.411,Framingham,Metropolitan Area Planning Council
Middlesex School Residence Hall,completed,2016,29,19308,42.496,-71.368,Concord,Metropolitan Area Planning Council
Wellington Parkside,completed,2016,190,0,42.40831803,-71.06444116,Everett,Metropolitan Area Planning Council
The Merc,completed,2016,269,27500,42.3758,-71.2374,Waltham,Metropolitan Area Planning Council
900 Beacon Street,completed,2016,32,4470,42.34683939,-71.10576261,Boston,Metropolitan Area Planning Council
Concord Academy Science Center,completed,2016,0,18000,42.46040105,-71.35513908,Concord,Metropolitan Area Planning Council
Boston College Dorm Conversion (2000 Commonwealth),completed,2016,0,0,42.33944737,-71.15859291,Boston,Metropolitan Area Planning Council
Temple Place Apartments - 5 Temple Street,completed,2016,40,0,42.36669017,-71.10416388,Cambridge,Metropolitan Area Planning Council
299 Dudley St Apartments,completed,2016,12,,42.32785795,-71.07789518,Boston,Metropolitan Area Planning Council
Avalon North Station,completed,2016,503,3575,42.36594674,-71.06329312,Boston,Metropolitan Area Planning Council
945 East Broadway,completed,2016,10,0,42.33551483,-71.02607859,Boston,Metropolitan Area Planning Council
Elliott Landing,completed,2016,65,0,42.55695162,-70.88783656,Beverly,Metropolitan Area Planning Council
Charles River Village,completed,2016,11,0,42.1376209,-71.40602018,Medway,Metropolitan Area Planning Council
178-186 E. Howard Street,completed,2016,12,0,42.24270288,-70.97804399,Quincy,Metropolitan Area Planning Council
Cranberry Cove,completed,2016,13,0,42.1084284,-70.69874654,Marshfield,Metropolitan Area Planning Council
485 East Central Street - Franklin Retirement,completed,2016,181,0,42.08063644,-71.37574821,Franklin,Metropolitan Area Planning Council
Kensington Place - Hinge Block,completed,2016,299,4200,42.35175319,-71.06321498,Boston,Metropolitan Area Planning Council
Millenium Tower,completed,2016,450,30000,42.35569106,-71.05944963,Boston,Metropolitan Area Planning Council
333-339 West Broadway,completed,2016,15,2600,42.33804231,-71.05024671,Boston,Metropolitan Area Planning Council
1699 Worcester Road - Wendys,completed,2016,0,3825,42.2975633,-71.48396214,Framingham,Metropolitan Area Planning Council
Seville Boston Harbor,completed,2016,66,15000,42.37616251,-71.03948812,Boston,Metropolitan Area Planning Council
Currents on the Charles - 33 River St,completed,2016,34,0,42.3683603,-71.21661105,Waltham,Metropolitan Area Planning Council
Commonwealth Residences,completed,2016,52,,42.32327295,-71.34750338,Wayland,Metropolitan Area Planning Council
Middlesex Green - 521 to 575 Virginia Rd,completed,2016,0,288430,42.46777631,-71.30358417,Concord,Metropolitan Area Planning Council
168 Third Ave,completed,2016,0,129000,42.39495892,-71.26519939,Waltham,Metropolitan Area Planning Council
Bedford Marketplace,completed,2016,0,147000,42.49088067,-71.27338997,Bedford,Metropolitan Area Planning Council
Suffolk University- 20 Somerset Street,completed,2016,0,156000,42.35968822,-71.06184126,Boston,Metropolitan Area Planning Council
Highland Park III,completed,2016,3,0,42.25729633,-71.54553382,Hopkinton,Metropolitan Area Planning Council
West of Chestnut,completed,2016,169,0,42.24963165,-71.00203084,Quincy,Metropolitan Area Planning Council
BUMC- New Ambulatory Care Center,completed,2016,0,245000,42.33499062,-71.07327426,Boston,Metropolitan Area Planning Council
Boston College- 2150 Commonwealth Ave Residence Hall,completed,2016,0,0,42.33928307,-71.16496281,Boston,Metropolitan Area Planning Council
Harvard University (Allston): Chao Center,completed,2016,0,75000,42.3666,-71.1199,Boston,Metropolitan Area Planning Council
Kelleher Pond Subdivision,completed,2016,16,0,42.56723052,-70.86484074,Beverly,Metropolitan Area Planning Council
9-25 Miner Street,completed,2016,49,0,42.34635671,-71.10317047,Boston,Metropolitan Area Planning Council
Oxford Ping On Affordable Housing Project,completed,2016,67,0,42.35211409,-71.06037456,Boston,Metropolitan Area Planning Council
Chelsea Station Restaurant Bar & Lounge,completed,2016,0,3100,42.39446361,-71.03906758,Chelsea,Metropolitan Area Planning Council
Ferncroft Country Club,completed,2016,0,8564,42.60439343,-70.97815002,Middleton,Metropolitan Area Planning Council
37/47 Washington Street,completed,2016,88,0,42.44142107,-71.07150815,Melrose,Metropolitan Area Planning Council
33 H Street,completed,2016,6,0,42.33682547,-71.04177408,Boston,Metropolitan Area Planning Council
71 Willow Ct,completed,2016,8,0,42.32456,-71.063624,Boston,Metropolitan Area Planning Council
111 B Street,completed,2016,8,0,42.340921,-71.053413,Boston,Metropolitan Area Planning Council
9 Cooper ST,completed,2016,6,0,42.36448204,-71.05595881,Boston,Metropolitan Area Planning Council
893 E Second,completed,2016,9,0,42.33721,-71.02746,Boston,Metropolitan Area Planning Council
"6	Ashland St",completed,2016,6,0,42.30074396,-71.05388408,Boston,Metropolitan Area Planning Council
65-67 Lexington,completed,2016,7,0,42.37758757,-71.03738104,Boston,Metropolitan Area Planning Council
281-289 Adams Street,completed,2016,22,0,42.374227,-71.058491,Boston,Metropolitan Area Planning Council
164 Hichborn st,completed,2016,6,0,42.408642,-71.000597,Revere,Metropolitan Area Planning Council
275 Old Colony Ave,completed,2016,14,0,42.330617,-71.053111,Boston,Metropolitan Area Planning Council
273 D Street,completed,2016,24,0,42.33919627,-71.05003375,Boston,Metropolitan Area Planning Council
110 Park St,completed,2016,8,0,42.299007,-71.058701,Boston,Metropolitan Area Planning Council
25 Mercer ST,completed,2016,6,0,42.332696,-71.04915,Boston,Metropolitan Area Planning Council
Benchmark Norwood,completed,2016,90,0,42.21341555,-71.193114,Norwood,Metropolitan Area Planning Council
27 Washburn ST,completed,2016,7,0,42.325861,-71.058015,Boston,Metropolitan Area Planning Council
Kaya Hotel,completed,2016,0,24162,42.38927422,-71.12033058,Cambridge,Metropolitan Area Planning Council
610 Main Street North Phase 2,completed,2016,0,418000,42.3623853,-71.09400942,Cambridge,Metropolitan Area Planning Council
145-149 Cedar St,completed,2016,6,0,42.327641,-71.094975,Boston,Metropolitan Area Planning Council
24 Rawson St,completed,2016,7,0,42.325935,-71.05779383,Boston,Metropolitan Area Planning Council
6-14 Fern St,completed,2016,6,0,42.359898,-71.133254,Boston,Metropolitan Area Planning Council
30-30E Park St,completed,2016,6,0,42.35755373,-71.06271857,Boston,Metropolitan Area Planning Council
542 Dorchester AV,completed,2016,9,0,42.330887,-71.056741,Boston,Metropolitan Area Planning Council
22 WOODWARD,completed,2016,6,0,42.33159,-71.056139,Boston,Metropolitan Area Planning Council
Reading Woods,completed,2016,424,0,42.50383178,-71.10838613,Reading,Metropolitan Area Planning Council
16 Preble St,completed,2016,7,0,42.329615,-71.056369,Boston,Metropolitan Area Planning Council
60 Holworthy,completed,2016,7,0,42.316254,-71.089554,Boston,Metropolitan Area Planning Council
240 Sidney St.,completed,2016,96,0,42.35689529,-71.1062642,Cambridge,Metropolitan Area Planning Council
Canton Street Condominiums,completed,2016,6,0,42.13557212,-71.17097344,Sharon,Metropolitan Area Planning Council
43 Bridge Street ANR,completed,2016,6,0,42.532817,-70.887984,Salem,Metropolitan Area Planning Council
Single Family ,completed,2016,1,0,42.515503,-70.903065,Salem,Metropolitan Area Planning Council
10 Acorn Park (600 Discovery Park),completed,2016,0,82340,42.39875818,-71.14702296,Cambridge,Metropolitan Area Planning Council
Hub25,completed,2016,278,0,42.31957862,-71.0512059,Boston,Metropolitan Area Planning Council
100 Northern Avenue (Fan Pier Parcel I),completed,2016,0,515000,42.35219109,-71.04347003,Boston,Metropolitan Area Planning Council
15R SPARHAWK,completed,2016,5,0,42.351244,-71.149286,Boston,Metropolitan Area Planning Council
Residences at 319 A Street,completed,2016,48,0,42.34897825,-71.04904361,Boston,Metropolitan Area Planning Council
Canton Ice House,completed,2016,0,65675,42.14140167,-71.12767161,Canton,Metropolitan Area Planning Council
Brightview Canton,completed,2016,160,0,42.18226574,-71.11737628,Canton,Metropolitan Area Planning Council
296 York Street Subdivision,completed,2016,3,0,42.17123311,-71.08931687,Canton,Metropolitan Area Planning Council
Turtle Creek/ Village Gate,completed,2016,28,0,42.16189208,-71.10162002,Canton,Metropolitan Area Planning Council
Beaver Meadow Estates (Herman Paul Road),completed,2016,9,0,42.1472547,-71.11754475,Canton,Metropolitan Area Planning Council
The Estuary - Canton Point Condos,completed,2016,53,0,42.16719613,-71.11389675,Canton,Metropolitan Area Planning Council
Union Point -- Faring Way,completed,2016,221,0,42.15933811,-70.94845575,Weymouth,Metropolitan Area Planning Council
Union Point - Snowbird Development,completed,2016,26,0,42.15818714,-70.94597138,Weymouth,Metropolitan Area Planning Council
Hewitts Landing Townhomes,completed,2016,150,0,42.25275393,-70.91597447,Hingham,Metropolitan Area Planning Council
563-565 Broadway,completed,2016,10,4750,42.398552,-71.107482,Somerville,Metropolitan Area Planning Council
197 Washington Street,completed,2016,30,0,42.37981784,-71.09155454,Somerville,Metropolitan Area Planning Council
"19-21 Village St Somerville, MA 02143",completed,2016,7,0,42.38082203,-71.10547283,Somerville,Metropolitan Area Planning Council
587-593 Somerville Ave,completed,2016,6,0,42.38398737,-71.10890982,Somerville,Metropolitan Area Planning Council
47 Hunting Street,completed,2016,4,0,42.37421263,-71.09092878,Somerville,Metropolitan Area Planning Council
NEEP Renovations and Expansion,completed,2016,0,329500,42.47790265,-71.19183846,Burlington,Metropolitan Area Planning Council
Middleton Crossing,completed,2016,0,29227,42.58314408,-71.00723505,Middleton,Metropolitan Area Planning Council
325 & 375 Assembly Row,completed,2016,0,7483,42.39280535,-71.07873263,Somerville,Metropolitan Area Planning Council
Hayward Farm,completed,2016,6,0,42.48300453,-71.46401313,Acton,Metropolitan Area Planning Council
6-8 Beacon St,completed,2016,6,0,42.37450686,-71.10210275,Somerville,Metropolitan Area Planning Council
89 Wyman Street,completed,2016,4,0,42.49058896,-71.16714201,Woburn,Metropolitan Area Planning Council
249 Cushing Street,completed,2016,2,0,42.19636442,-70.90033434,Hingham,Metropolitan Area Planning Council
450 Cambridge Street,completed,2017,40,1631,42.35389491,-71.13559423,Boston,Metropolitan Area Planning Council
Hancock Estates,completed,2017,88,,42.30434172,-71.16619364,Newton,Metropolitan Area Planning Council
Emmerton House,completed,2017,6,0,42.52272837,-70.8843989,Salem,Metropolitan Area Planning Council
21 Batchelder Street,completed,2017,0,3584,42.32185865,-71.06898062,Boston,Metropolitan Area Planning Council
Continuum,completed,2017,325,45000,42.29642865,-71.07972062,Boston,Metropolitan Area Planning Council
Whitney Place,completed,2017,88,0,42.09643351,-71.2209206,Sharon,Metropolitan Area Planning Council
490 Old Conn Path,completed,2017,0,137300,42.31301504,-71.39472088,Framingham,Metropolitan Area Planning Council
Lahey Hospital Emergency Center,completed,2017,0,41000,42.48489262,-71.20556691,Burlington,Metropolitan Area Planning Council
380 Main Street,completed,2017,0,3300,42.47963911,-71.10000197,Stoneham,Metropolitan Area Planning Council
HighRes Biosolutions,completed,2017,0,80000,42.57697573,-70.90757279,Beverly,Metropolitan Area Planning Council
The Faretra,completed,2017,9,0,42.37430696,-71.03679229,Boston,Metropolitan Area Planning Council
The Conrad,completed,2017,27,0,42.35620864,-71.06122064,Boston,Metropolitan Area Planning Council
The Benjamin & VIA,completed,2017,832,250000,42.35311732,-71.04722044,Boston,Metropolitan Area Planning Council
Constitution Wharf Renovation/ Addition,completed,2017,0,180000,42.37265733,-71.0560391,Boston,Metropolitan Area Planning Council
65 Green Street,completed,2017,8,,42.31191394,-71.11056881,Boston,Metropolitan Area Planning Council
One Gurney Street,completed,2017,40,31577,42.33188786,-71.09576952,Boston,Metropolitan Area Planning Council
483 Somerville Avenue,completed,2017,3,,42.38296358,-71.10415552,Somerville,Metropolitan Area Planning Council
Parcel 24 Phase II - 88 Hudson,completed,2017,51,0,42.34858843,-71.06077264,Boston,Metropolitan Area Planning Council
Lovejoy Wharf - 100 Lovejoy Wharf,completed,2017,157,0,42.36733641,-71.0594584,Boston,Metropolitan Area Planning Council
One Greenway / Parcel 24 - 66 Hudson ,completed,2017,95,3300,42.34994249,-71.06010961,Boston,Metropolitan Area Planning Council
Auburn Court Apartments Expansion,completed,2017,9,,42.34842896,-71.09747205,Boston,Metropolitan Area Planning Council
Urban Air Trampoline Park - Bellingham,completed,2017,0,35000,42.08267561,-71.45459149,Bellingham,Metropolitan Area Planning Council
Joan and Edgar Booth Theatre - Boston University,completed,2017,0,75000,42.35020143,-71.11249663,Brookline,Metropolitan Area Planning Council
The Landing Apartments,completed,2017,172,11000,42.22084084,-70.96888897,Braintree,Metropolitan Area Planning Council
150 River's Edge Drive,completed,2017,282,0,42.41114587,-71.07587475,Medford,Metropolitan Area Planning Council
Adelaide Way,completed,2017,15,0,42.07758603,-70.67352365,Marshfield,Metropolitan Area Planning Council
Residence Inn Braintree,completed,2017,0,7040,42.2197805,-71.03441138,Braintree,Metropolitan Area Planning Council
The Residences and Shops at Wakefield Station,completed,2017,60,8000,42.50091036,-71.07376782,Wakefield,Metropolitan Area Planning Council
The Residence at Melrose Station,completed,2017,90,0,42.45652562,-71.0683982,Melrose,Metropolitan Area Planning Council
Village at South River,completed,2017,14,,42.13917287,-70.69284011,Scituate,Metropolitan Area Planning Council
Winter Garden Estates,completed,2017,5,0,42.0875959,-71.37624208,Franklin,Metropolitan Area Planning Council
J. Henry Higgins Middle School,completed,2017,0,231000,42.52531387,-70.94258688,Peabody,Metropolitan Area Planning Council
Abbey Road,completed,2017,18,0,42.2433721,-71.36968517,Sherborn,Metropolitan Area Planning Council
163 Glen Street,completed,2017,11,0,42.38253686,-71.08847563,Somerville,Metropolitan Area Planning Council
181 Washington Street,completed,2017,30,2413,42.38009169,-71.09110909,Somerville,Metropolitan Area Planning Council
"Ingham Lane PRD, 1888 Main St",completed,2017,7,0,42.45013625,-71.41430204,Concord,Metropolitan Area Planning Council
Collins Mansion Condominiums,completed,2017,9,0,42.33605492,-71.02685409,Boston,Metropolitan Area Planning Council
728 East Broadway,completed,2017,18,6400,42.33595937,-71.03622898,Boston,Metropolitan Area Planning Council
Beaver Country Day School - Research and Design Center,completed,2017,0,38211,42.31813356,-71.16535187,Brookline,Metropolitan Area Planning Council
266 Beacon Street,completed,2017,7,0,42.38251453,-71.11222188,Somerville,Metropolitan Area Planning Council
Parkside on Adams,completed,2017,43,7000,42.28580085,-71.12831346,Boston,Metropolitan Area Planning Council
Clapp Memorial,completed,2017,21,0,42.21619117,-70.93828307,Weymouth,Metropolitan Area Planning Council
170 West Broadway,completed,2017,33,5170,42.34054134,-71.05291357,Boston,Metropolitan Area Planning Council
59 Temple Place,completed,2017,0,135500,42.35466941,-71.06167943,Boston,Metropolitan Area Planning Council
Myrtle Village,completed,2017,7,0,42.34584445,-71.23560659,Newton,Metropolitan Area Planning Council
40 Fisher Avenue,completed,2017,15,0,42.33015782,-71.10083402,Boston,Metropolitan Area Planning Council
Dragon Court - 10 lots,completed,2017,20,0,42.5099296,-71.12576847,Woburn,Metropolitan Area Planning Council
Seaport Square: Parcel J - Yotel Seaport Boston,completed,2017,0,99400,42.35230526,-71.04730427,Boston,Metropolitan Area Planning Council
Clarks Hill - Neighborhood Cluster Development,completed,2017,28,0,42.28208941,-71.40344617,Framingham,Metropolitan Area Planning Council
47 Webster,completed,2017,4,2000,42.36718989,-71.03909915,Boston,Metropolitan Area Planning Council
Distillery Project - Phase 1,completed,2017,62,27200,42.33756169,-71.04203002,Boston,Metropolitan Area Planning Council
621 East First Street,completed,2017,28,0,42.33791728,-71.034604,Boston,Metropolitan Area Planning Council
Marlborough Rd ANR,completed,2017,3,0,42.51449708,-70.92558179,Salem,Metropolitan Area Planning Council
Austin at 205 E Street,completed,2017,34,0,42.33485476,-71.05248544,Boston,Metropolitan Area Planning Council
30 B Street,completed,2017,32,0,42.33917389,-71.05627938,Boston,Metropolitan Area Planning Council
57 L Street,completed,2017,13,0,42.33626354,-71.03566924,Boston,Metropolitan Area Planning Council
Wegman's Supermarket,completed,2017,0,120000,42.40706696,-71.09218089,Medford,Metropolitan Area Planning Council
10 Farnsworth,completed,2017,9,1400,42.35100244,-71.04897651,Boston,Metropolitan Area Planning Council
290 Highland Ave,completed,2017,7,0,42.39214852,-71.11272328,Somerville,Metropolitan Area Planning Council
Bellevue Heights,completed,2017,28,0,42.46763958,-71.00213322,Saugus,Metropolitan Area Planning Council
Wrentham Crossing,completed,2017,0,130000,42.03544069,-71.34489985,Wrentham,Metropolitan Area Planning Council
Winsor School Project,completed,2017,0,110000,42.34083523,-71.10750874,Boston,Metropolitan Area Planning Council
Harvard College Winthrop House Expansion,completed,2017,0,0,42.37047391,-71.1202593,Cambridge,Metropolitan Area Planning Council
477-481 Harrison Avenue,completed,2017,18,0,42.3420573,-71.06670798,Boston,Metropolitan Area Planning Council
Rutherford Landing,completed,2017,15,0,42.38085465,-71.07120489,Boston,Metropolitan Area Planning Council
Estates at Cohasset,completed,2017,41,0,42.22666095,-70.80345297,Cohasset,Metropolitan Area Planning Council
Maison Vernon,completed,2017,7,0,42.35852912,-71.06491888,Boston,Metropolitan Area Planning Council
Rockwood Estates,completed,2017,9,0,42.28043821,-71.21066402,Needham,Metropolitan Area Planning Council
Meriel Marina Bay,completed,2017,352,20000,42.2999849,-71.03119506,Quincy,Metropolitan Area Planning Council
Dunkin Donuts,completed,2017,0,276,42.24565385,-71.28188841,Dover,Metropolitan Area Planning Council
610 Main St (MITIMCO/Phase 2),completed,2017,0,238264,42.36250368,-71.09306592,Cambridge,Metropolitan Area Planning Council
1047 Commonwealth Avenue,completed,2017,180,0,42.35258895,-71.12259739,Boston,Metropolitan Area Planning Council
135 Athens Street,completed,2017,15,0,42.34077727,-71.05302163,Boston,Metropolitan Area Planning Council
The Harlo,completed,2017,212,7025,42.34381377,-71.0994278,Boston,Metropolitan Area Planning Council
70 Parker Hill Avenue - Sunset Lofts,completed,2017,42,0,42.33099425,-71.10918331,Boston,Metropolitan Area Planning Council
75-83 Court Street,completed,2017,36,0,42.35354188,-71.20443782,Newton,Metropolitan Area Planning Council
AC Hotel South End,completed,2017,0,95000,42.34490065,-71.06195866,Boston,Metropolitan Area Planning Council
Nova Residences,completed,2017,85,0,42.34831996,-71.14252183,Boston,Metropolitan Area Planning Council
The Parkside on Adams,completed,2017,43,7000,42.28602949,-71.1281696,Boston,Metropolitan Area Planning Council
Boston University - 610 Commonwealth Ave (CILSE),completed,2017,0,136200,42.34893919,-71.10093162,Boston,Metropolitan Area Planning Council
Congress Street Residences,completed,2017,64,3000,42.51651779,-70.89012645,Salem,Metropolitan Area Planning Council
Kesseler Woods,completed,2017,88,0,42.30297828,-71.16998869,Newton,Metropolitan Area Planning Council
Hogan Tire Center,completed,2017,0,6140,42.22825377,-71.18566475,Westwood,Metropolitan Area Planning Council
Trac 75,completed,2017,80,2277,42.35651344,-71.13595452,Boston,Metropolitan Area Planning Council
132 Chestnut Hill Avenue,completed,2017,61,3500,42.34290539,-71.15312404,Boston,Metropolitan Area Planning Council
20 Sussex Street,completed,2017,4,0,42.3358233,-71.083511,Boston,Metropolitan Area Planning Council
The Vault,completed,2017,49,3800,42.46425078,-70.94584269,Lynn,Metropolitan Area Planning Council
16-20 Peterborough,completed,2017,20,0,42.34386287,-71.09605271,Boston,Metropolitan Area Planning Council
Patriot Homes,completed,2017,24,0,42.33858303,-71.05081029,Boston,Metropolitan Area Planning Council
Brigham and Women's Hospital: Building for the Future,completed,2017,0,358670,42.3356,-71.1089,Boston,Metropolitan Area Planning Council
"Brigham and Women's Hospital: Additional ""Building of the Future"" Floor",completed,2017,0,28500,42.3355,-71.1086,Boston,Metropolitan Area Planning Council
148-152 Dorchester Avenue Phase II,completed,2017,30,0,42.3417,-71.0569,Boston,Metropolitan Area Planning Council
Autozone,completed,2017,0,7400,42.16673935,-71.0444357,Randolph,Metropolitan Area Planning Council
Boston Scientific Global Distribution Center,completed,2017,0,64000,42.29337,-71.033394,Quincy,Metropolitan Area Planning Council
555 Broad Street,completed,2017,2,1250,42.21736795,-70.93715745,Weymouth,Metropolitan Area Planning Council
Yentile Farm Recreational Facility,completed,2017,0,182350,42.53914578,-71.16138711,Wilmington,Metropolitan Area Planning Council
Telford 180,completed,2017,85,0,42.36368278,-71.13781251,Boston,Metropolitan Area Planning Council
Life Time Center,completed,2017,0,286000,42.31880281,-71.18015466,Newton,Metropolitan Area Planning Council
West of Washington,completed,2017,8,850,42.28626007,-71.07135871,Boston,Metropolitan Area Planning Council
"35, 39, 43, 47 Frederick Street",completed,2017,33,0,42.27915384,-71.41464212,Framingham,Metropolitan Area Planning Council
367 Neponset Ave,completed,2017,22,5500,42.28648209,-71.04516471,Boston,Metropolitan Area Planning Council
Symphony Court,completed,2017,34,0,42.34415406,-71.08803961,Boston,Metropolitan Area Planning Council
371-401 D Street Development,completed,2017,0,347300,42.34305719,-71.0487213,Boston,Metropolitan Area Planning Council
Union Park Condos,completed,2017,3,0,42.3419203,-71.0705257,Boston,Metropolitan Area Planning Council
The Serenity ,completed,2017,195,2100,42.32895141,-71.11131029,Boston,Metropolitan Area Planning Council
245 Sumner Street,completed,2017,34,2257,42.36793904,-71.03843581,Boston,Metropolitan Area Planning Council
1467 Tremont Street,completed,2017,18,1774,42.33202516,-71.09780656,Boston,Metropolitan Area Planning Council
Two Wells Ave,completed,2017,0,135000,42.2958057,-71.20166043,Newton,Metropolitan Area Planning Council
Suffolk Construction Headquarters Expansion,completed,2017,0,38000,42.32821503,-71.07027481,Boston,Metropolitan Area Planning Council
Seaport Square: Parcel H - Our Lady of Good Voyage,completed,2017,0,6200,42.35267663,-71.04806487,Boston,Metropolitan Area Planning Council
The Flats at 131,completed,2017,72,6500,42.546388,-70.883878,Beverly,Metropolitan Area Planning Council
Peterborough Apartments,completed,2017,20,0,42.343999,-71.095803,Boston,Metropolitan Area Planning Council
38-42 Hyde Park Ave,completed,2017,6,1000,42.29884845,-71.11398582,Boston,Metropolitan Area Planning Council
Newton Nexus,completed,2017,0,142000,42.31332195,-71.21287131,Newton,Metropolitan Area Planning Council
MetroMark Apartments (3611 Washington Street),completed,2017,283,5000,42.30272528,-71.11157799,Boston,Metropolitan Area Planning Council
Modera Medford,completed,2017,297,0,42.40555744,-71.07340292,Medford,Metropolitan Area Planning Council
The Residences at 1022 Hancock St,completed,2017,46,0,42.25728305,-71.00733058,Quincy,Metropolitan Area Planning Council
Jamaica Plain Branch Library (12 Sedgwick St.),completed,2017,0,700,42.30865017,-71.11501168,Boston,Metropolitan Area Planning Council
CommCan Medical Marijuana Facility,completed,2017,0,60000,42.15876033,-71.39547401,Medway,Metropolitan Area Planning Council
New England Sports Center (Expansion),completed,2017,0,88000,42.36529686,-71.59628962,Marlborough,Metropolitan Area Planning Council
APEX Center of New England,completed,2017,0,487522,42.33848196,-71.58604586,Marlborough,Metropolitan Area Planning Council
Homewood Suites by Hilton,completed,2017,0,103000,42.39912099,-71.03923877,Chelsea,Metropolitan Area Planning Council
593 Massachusetts Avenue,completed,2017,0,8700,42.48224504,-71.50961832,Boxborough,Metropolitan Area Planning Council
Paddock Estates at Boxborough,completed,2017,244,0,42.48950348,-71.5383358,Boxborough,Metropolitan Area Planning Council
408 E Eighth,completed,2017,8,0,42.33145211,-71.04476325,Boston,Metropolitan Area Planning Council
104 Hichborn st,completed,2017,4,0,42.407333,-71.001661,Revere,Metropolitan Area Planning Council
81 Amory,completed,2017,12,0,42.32026717,-71.09961355,Boston,Metropolitan Area Planning Council
105A S Huntington Av,completed,2017,195,0,42.329581,-71.111328,Boston,Metropolitan Area Planning Council
Cottages at Depot Crossing (Cheevers Path),completed,2017,9,0,42.48419619,-71.27472546,Bedford,Metropolitan Area Planning Council
40 Fisher Ave,completed,2017,15,0,42.32740896,-71.10172637,Boston,Metropolitan Area Planning Council
Asphalt Engineering,completed,2017,0,43560,42.13680035,-71.46514934,Medway,Metropolitan Area Planning Council
130 Cambridgepark Drive,completed,2017,213,0,42.39366255,-71.1451089,Cambridge,Metropolitan Area Planning Council
75 Amory Avenue (Building K Jackson Square),completed,2017,55,0,42.32115057,-71.10048837,Boston,Metropolitan Area Planning Council
50-60 Binney St,completed,2017,0,467500,42.36489753,-71.07978919,Cambridge,Metropolitan Area Planning Council
136 Sydney ST,completed,2017,9,0,42.316078,-71.052709,Boston,Metropolitan Area Planning Council
Wildflower Meadow,completed,2017,200,0,42.52607624,-71.43354558,Littleton,Metropolitan Area Planning Council
186-188 Paris ST,completed,2017,9,0,42.37434,-71.035568,Boston,Metropolitan Area Planning Council
296 Beacon St,completed,2017,9,0,42.353097,-71.082131,Boston,Metropolitan Area Planning Council
194 Shirley ave Revere ,completed,2017,0,7068,42.407693,-70.993587,Revere,Metropolitan Area Planning Council
549 Beach Street                                                                                                ,completed,2017,7,0,42.409263,-70.997348,Revere,Metropolitan Area Planning Council
728 E Broadway,completed,2017,18,0,42.336081,-71.036661,Boston,Metropolitan Area Planning Council
The Rand at Porter/1971 Massachusetts Avenue,completed,2017,20,3925,42.39015232,-71.12043317,Cambridge,Metropolitan Area Planning Council
Cambridgepark Dr. #88,completed,2017,0,0,42.39323126,-71.14362188,Cambridge,Metropolitan Area Planning Council
100 Binney,completed,2017,0,358782,42.36518629,-71.08092453,Cambridge,Metropolitan Area Planning Council
1425 Tremont St,completed,2017,40,0,42.33173096,-71.09627301,Boston,Metropolitan Area Planning Council
16 Dyer,completed,2017,40,0,42.283557,-71.079877,Boston,Metropolitan Area Planning Council
56 Mattapan St,completed,2017,8,0,42.27782,-71.09576,Boston,Metropolitan Area Planning Council
Countryside Estates,completed,2017,9,0,42.05431382,-71.45089024,Franklin,Metropolitan Area Planning Council
Flats on Savin,completed,2017,14,4650,42.31163773,-71.05335318,Boston,Metropolitan Area Planning Council
Pier 4: Phase 2,completed,2017,0,373000,42.35202529,-71.0428019,Boston,Metropolitan Area Planning Council
288 Marginal St,completed,2017,6,0,42.36419,-71.030832,Boston,Metropolitan Area Planning Council
584 E Third ST,completed,2017,8,0,42.336729,-71.036559,Boston,Metropolitan Area Planning Council
Roosevelt Drive,completed,2017,3,0,42.48774744,-71.44817456,Acton,Metropolitan Area Planning Council
364 NEPONSET AV,completed,2017,7,0,42.287107,-71.045261,Boston,Metropolitan Area Planning Council
First Buckeye,completed,2017,0,15000,42.11171702,-70.71050036,Marshfield,Metropolitan Area Planning Council
37 Mercer St,completed,2017,7,0,42.332273,-71.049194,Boston,Metropolitan Area Planning Council
CVS Pharmacy,completed,2017,0,14000,42.37165353,-71.15685755,Watertown,Metropolitan Area Planning Council
17-19 Vinton St,completed,2017,6,0,42.330181,-71.053642,Boston,Metropolitan Area Planning Council
711 E Second,completed,2017,7,0,42.337243,-71.03453,Boston,Metropolitan Area Planning Council
125 Stoughton St,completed,2017,6,0,42.315117,-71.061152,Boston,Metropolitan Area Planning Council
18 Preble St,completed,2017,16,0,42.329607,-71.056166,Boston,Metropolitan Area Planning Council
9 Channel Center,completed,2017,0,81000,42.34527896,-71.05141493,Boston,Metropolitan Area Planning Council
Linx Watertown,completed,2017,0,185595,42.36705071,-71.15771129,Watertown,Metropolitan Area Planning Council
Cliveden Place,completed,2017,56,7500,42.24719414,-71.00156689,Quincy,Metropolitan Area Planning Council
Ocean 650 - Waterfront Square,completed,2017,229,0,42.41576602,-70.98989265,Revere,Metropolitan Area Planning Council
"1 Brookline Place, Cambridge, MA",completed,2017,86,0,42.36245015,-71.10207416,Cambridge,Metropolitan Area Planning Council
The Four Corners-Upper Washington Project,completed,2017,35,3500,42.29991048,-71.07389664,Boston,Metropolitan Area Planning Council
17 Court Street Renovation,completed,2017,35,0,42.35928068,-71.05835283,Boston,Metropolitan Area Planning Council
Assembly Row: Block 6/Montaje,completed,2017,447,40000,42.39389997,-71.0784,Somerville,Metropolitan Area Planning Council
320 Maverick St,completed,2017,33,0,42.36722529,-71.03164067,Boston,Metropolitan Area Planning Council
315 Highland Ave,completed,2017,7,1600,42.39318552,-71.11414862,Somerville,Metropolitan Area Planning Council
Boston East ,completed,2017,200,0,42.37286697,-71.04162508,Boston,Metropolitan Area Planning Council
1065 Tremont Street,completed,2017,16,1000,42.3362266,-71.08639377,Boston,Metropolitan Area Planning Council
MPIII Townhomes Renovation,completed,2017,0,0,42.33374194,-71.08585767,Boston,Metropolitan Area Planning Council
BUMC - New Patient Transport Bridge,completed,2017,0,0,42.3340729,-71.07239216,Boston,Metropolitan Area Planning Council
Wentworth: New Sweeney Field Athletics Complex,completed,2017,0,55000,42.33782207,-71.09403113,Boston,Metropolitan Area Planning Council
"One Canal (Parcel 2A,B&C Bullfinch Triangle)",completed,2017,320,316300,42.36412391,-71.05901211,Boston,Metropolitan Area Planning Council
1 Edgell Road,completed,2017,0,346222,42.30061256,-71.43422562,Framingham,Metropolitan Area Planning Council
Village at Cook's Farm,completed,2017,55,0,42.07707776,-71.36919897,Franklin,Metropolitan Area Planning Council
Danforth Green (PUD),completed,2017,353,0,42.33081412,-71.39347376,Framingham,Metropolitan Area Planning Council
Public Safety Facility,completed,2017,0,42456,42.11414508,-71.18745276,Sharon,Metropolitan Area Planning Council
Brewster Ambulance Service Headquaters - 25 Main St,completed,2017,0,30240,42.20664333,-70.95710092,Weymouth,Metropolitan Area Planning Council
65 Grove Street (Old Ionics Building),completed,2017,0,149328,42.36969414,-71.15402853,Watertown,Metropolitan Area Planning Council
Benjamin Studley Farm,completed,2017,9,0,42.19285425,-70.76501347,Scituate,Metropolitan Area Planning Council
New Westwood Police Headquarters,completed,2017,0,19116,42.22798121,-71.22056641,Westwood,Metropolitan Area Planning Council
Residences at Great Pond,completed,2017,240,0,42.20589919,-71.05022009,Randolph,Metropolitan Area Planning Council
655 Cochituate Road,completed,2017,0,20470,42.30740356,-71.38538324,Framingham,Metropolitan Area Planning Council
Alexan,completed,2017,242,0,42.18575358,-70.942167,Weymouth,Metropolitan Area Planning Council
20 Taft Hill Park,completed,2017,19,0,42.28774297,-71.12826442,Boston,Metropolitan Area Planning Council
McGrane Woods,completed,2017,7,0,42.58331808,-71.18028331,Wilmington,Metropolitan Area Planning Council
30 Wyman St,completed,2017,36,0,42.49038286,-71.15919389,Woburn,Metropolitan Area Planning Council
The Lucas- 136 Shawmut Ave,completed,2017,33,0,42.34588807,-71.06597621,Boston,Metropolitan Area Planning Council
Four51 Marlborough,completed,2017,8,0,42.34994819,-71.09080263,Boston,Metropolitan Area Planning Council
78 West Main St.,cancelled,2018,0,3000,42.21818176,-71.54066441,Hopkinton,Metropolitan Area Planning Council
Bridge Boston Charter School,completed,2018,0,46000,42.31615865,-71.08450062,Boston,Metropolitan Area Planning Council
201 West Brookline Street,completed,2018,9,0,42.34338867,-71.07642061,Boston,Metropolitan Area Planning Council
2 Lewis St,completed,2018,1,0,42.41381156,-71.32602942,Lincoln,Metropolitan Area Planning Council
"Lowe's, Walmart and Meineke Expansions",completed,2018,0,320779,42.49261773,-70.93580735,Salem,Metropolitan Area Planning Council
"44 Maple St.,",completed,2018,10,0,42.5662717,-70.93665908,Danvers,Metropolitan Area Planning Council
Whitney Farm,completed,2018,48,0,42.23850667,-71.41712708,Sherborn,Metropolitan Area Planning Council
"60 Vassar Street/MIT Nano Lab, Building 12",completed,2018,0,216500,42.36066614,-71.09184747,Cambridge,Metropolitan Area Planning Council
35 South Huntington,completed,2018,38,7080,42.33127003,-71.11203983,Boston,Metropolitan Area Planning Council
506 Old Bedford Rd. PRD,completed,2018,8,0,42.4716543,-71.32164049,Concord,Metropolitan Area Planning Council
Penniman on the Park,completed,2018,36,0,42.35529814,-71.13619509,Boston,Metropolitan Area Planning Council
505 West Central Street,completed,2018,0,11760,42.09036054,-71.41905756,Franklin,Metropolitan Area Planning Council
Concord Academy Bradford Hall,completed,2018,0,8000,42.45929628,-71.35466081,Concord,Metropolitan Area Planning Council
Oakmont Lane Subdivision,completed,2018,4,0,42.40990786,-71.1948918,Belmont,Metropolitan Area Planning Council
142 Pleasant St,completed,2018,16,0,42.37250132,-70.98634052,Winthrop,Metropolitan Area Planning Council
5165 Washington Street,completed,2018,20,0,42.26240694,-71.15640149,Boston,Metropolitan Area Planning Council
Post,completed,2018,0,430000,42.41858181,-71.25433117,Waltham,Metropolitan Area Planning Council
115 Hartwell Ave,completed,2018,0,91000,42.46474465,-71.26462046,Lexington,Metropolitan Area Planning Council
Archer Hotel,completed,2018,0,30000,42.48859073,-71.2231518,Burlington,Metropolitan Area Planning Council
Sphere Luxury Apartments,completed,2018,42,3790,42.40080182,-71.11193958,Medford,Metropolitan Area Planning Council
Woburn Boys & Girls Club,completed,2018,0,43700,42.48938384,-71.15441024,Woburn,Metropolitan Area Planning Council
Hopkinton School Project,completed,2018,0,83250,42.21366731,-71.51259784,Hopkinton,Metropolitan Area Planning Council
Normandy Real Estate Partners- O Firmin/Pleasant St.,completed,2018,0,155812,42.29871812,-71.49251196,Southborough,Metropolitan Area Planning Council
270 Cochituate Rd,completed,2018,0,6500,42.30333384,-71.40261294,Framingham,Metropolitan Area Planning Council
518 Pleasant Street,completed,2018,60,0,42.30287311,-71.45942216,Framingham,Metropolitan Area Planning Council
Garrison Place,completed,2018,16,0,42.51627778,-71.35845538,Carlisle,Metropolitan Area Planning Council
63-65 White Pond Rd,completed,2018,0,5000,42.42689799,-71.48217687,Stow,Metropolitan Area Planning Council
278 Washington Street,completed,2018,4,2372,42.21420637,-70.96114066,Weymouth,Metropolitan Area Planning Council
68 Middlesex Turnpike,completed,2018,0,3282,42.47626847,-71.21464727,Burlington,Metropolitan Area Planning Council
Schoolhouse Commons 40B,completed,2018,20,0,42.520614,-71.11233801,Reading,Metropolitan Area Planning Council
Regency at Stow,completed,2018,66,0,42.4548544,-71.51442963,Stow,Metropolitan Area Planning Council
Essex Landing,completed,2018,256,100000,42.45395756,-71.02380961,Saugus,Metropolitan Area Planning Council
295 Canal Street,completed,2018,0,55117,42.41847854,-71.0725499,Malden,Metropolitan Area Planning Council
Pipefitters Association Local 537 New Training and Office Facility,completed,2018,0,70000,42.32364864,-71.06258063,Boston,Metropolitan Area Planning Council
828 Winter Street,completed,2018,0,144910,42.40185717,-71.27826987,Waltham,Metropolitan Area Planning Council
UMass Boston Residence Hall 1,completed,2018,0,0,42.31724966,-71.0413216,Boston,Metropolitan Area Planning Council
The Residences at Fairmount Station,completed,2018,27,0,42.25478923,-71.11914543,Boston,Metropolitan Area Planning Council
The 1850 - 88 Wareham Street,completed,2018,27,2000,42.3391084,-71.06605159,Boston,Metropolitan Area Planning Council
1620 Tremont (Roxbury Crossing / Parcel 25),completed,2018,88,196000,42.33355538,-71.10436118,Boston,Metropolitan Area Planning Council
Stall Brook Business Park,completed,2018,0,7400,42.12998906,-71.47091323,Bellingham,Metropolitan Area Planning Council
Dover Estates,completed,2018,4,0,42.1785765,-71.33802184,Millis,Metropolitan Area Planning Council
The Point at 180,completed,2018,86,0,42.42553681,-71.0630539,Malden,Metropolitan Area Planning Council
Forestdale Park Assisted Living,completed,2018,80,0,42.4408088,-71.05490458,Malden,Metropolitan Area Planning Council
Woodmere at Brush Hill,completed,2018,36,0,42.24294125,-71.11791908,Milton,Metropolitan Area Planning Council
345 Harrison,completed,2018,585,40000,42.34514828,-71.0644361,Boston,Metropolitan Area Planning Council
81 West Union Street,completed,2018,0,98600,42.25150774,-71.47245586,Ashland,Metropolitan Area Planning Council
Reading Village 40B,completed,2018,68,0,42.52134197,-71.10753116,Reading,Metropolitan Area Planning Council
Linden Ponds,completed,2018,1086,40000,42.19432046,-70.9140759,Hingham,Metropolitan Area Planning Council
New England Conservatory Student Life and Performance Center,completed,2018,0,135000,42.34163532,-71.08513283,Boston,Metropolitan Area Planning Council
Gramstorf Park Reconstruction,completed,2018,0,0,42.40780009,-71.04295632,Everett,Metropolitan Area Planning Council
The Pioneer,completed,2018,286,2500,42.40166669,-71.04561742,Everett,Metropolitan Area Planning Council
371 Main Street,completed,2018,24,0,42.41358828,-71.06326027,Everett,Metropolitan Area Planning Council
Devotion School Project,completed,2018,0,178535,42.34480443,-71.12371378,Brookline,Metropolitan Area Planning Council
John Sherman Estates,completed,2018,10,0,42.10720797,-70.72250329,Marshfield,Metropolitan Area Planning Council
Open Meadow Realty - Crooked Lane,completed,2018,0,0,42.58483912,-70.78916939,Manchester,Metropolitan Area Planning Council
Food Service + Retail,completed,2018,0,4764,42.16208253,-71.06070654,Randolph,Metropolitan Area Planning Council
902 East Second Street,completed,2018,36,0,42.33765859,-71.02658442,Boston,Metropolitan Area Planning Council
EnVision Hotel,completed,2018,0,59716,42.40191654,-71.04842011,Everett,Metropolitan Area Planning Council
Stone Ridge Heights,completed,2018,8,0,42.44505449,-71.041149,Melrose,Metropolitan Area Planning Council
Candy Factory,completed,2018,8,0,42.5116443,-70.89635494,Salem,Metropolitan Area Planning Council
Dental Parking Lot,completed,2018,0,0,42.46104894,-71.06123231,Melrose,Metropolitan Area Planning Council
10 Magnolia Ave,completed,2018,6,0,42.57832921,-70.7159589,Gloucester,Metropolitan Area Planning Council
236-240 Salem Street,completed,2018,16,0,42.42046364,-71.09996533,Medford,Metropolitan Area Planning Council
Century Mill Estates,completed,2018,78,0,42.41245305,-71.59949378,Bolton,Metropolitan Area Planning Council
70 Bremen Street,completed,2018,32,1028,42.3704719,-71.03735509,Boston,Metropolitan Area Planning Council
Tufts University Central Energy Plant,completed,2018,0,20000,42.40731864,-71.11635511,Medford,Metropolitan Area Planning Council
121-127 Portland Street (The Forecaster Bldg),completed,2018,81,3719,42.36359439,-71.06047463,Boston,Metropolitan Area Planning Council
The Arsenal on the Charles,completed,2018,0,263000,42.362681,-71.16604549,Watertown,Metropolitan Area Planning Council
Woburn Homewood Suites and Hampton Inn,completed,2018,0,103684,42.5002447,-71.12385576,Woburn,Metropolitan Area Planning Council
1868 Massachusetts Ave.,completed,2018,0,34900,42.38789207,-71.11971033,Cambridge,Metropolitan Area Planning Council
Winthrop Hospital,completed,2018,74,0,42.37941446,-70.99097496,Winthrop,Metropolitan Area Planning Council
67 Florence St,completed,2018,6,0,42.384528,-71.08211673,Somerville,Metropolitan Area Planning Council
The Haven,completed,2018,3,0,42.14473355,-71.4536297,Medway,Metropolitan Area Planning Council
107 Highland Ave,completed,2018,8,0,42.51022826,-70.90979009,Salem,Metropolitan Area Planning Council
Whittier Place Apartments,completed,2018,29,0,42.28995738,-71.07488705,Boston,Metropolitan Area Planning Council
50 St. Peter Street,completed,2018,36,3200,42.52432616,-70.89323936,Salem,Metropolitan Area Planning Council
444 Somerville Ave,completed,2018,0,55700,42.38127758,-71.10228961,Somerville,Metropolitan Area Planning Council
1072 Washington Street,completed,2018,2,1200,42.19872237,-70.93245679,Weymouth,Metropolitan Area Planning Council
Smith House Renovation,completed,2018,0,0,42.33215144,-71.08450241,Boston,Metropolitan Area Planning Council
529-535 Washington St,completed,2018,0,1750,42.21451038,-71.00481212,Braintree,Metropolitan Area Planning Council
40 River Street,completed,2018,18,0,42.15928462,-70.79271791,Norwell,Metropolitan Area Planning Council
Boulevard on the Greenway,completed,2018,36,3550,42.35738635,-71.05208331,Boston,Metropolitan Area Planning Council
Wyllie Estates Subdivision,completed,2018,4,0,42.06975732,-71.36505346,Wrentham,Metropolitan Area Planning Council
31 Orleans Street,completed,2018,14,0,42.36752018,-71.03821088,Boston,Metropolitan Area Planning Council
100 & 150 Exchange Street,completed,2018,210,1951,42.42594379,-71.07089081,Malden,Metropolitan Area Planning Council
490 Eastern Ave,completed,2018,0,43000,42.42905386,-71.05622436,Malden,Metropolitan Area Planning Council
White Pines Estates II,completed,2018,10,0,42.18708032,-71.46041677,Holliston,Metropolitan Area Planning Council
32 Church St,completed,2018,5,0,42.36773185,-71.1850198,Watertown,Metropolitan Area Planning Council
150 West Broadway Street,completed,2018,24,0,42.34075925,-71.05336613,Boston,Metropolitan Area Planning Council
Self Storage,completed,2018,0,132500,42.30557462,-71.10990759,Boston,Metropolitan Area Planning Council
East Meadow Farm,completed,2018,21,0,42.61479672,-70.99290783,Middleton,Metropolitan Area Planning Council
Gordon Drive,completed,2018,18,0,42.12138164,-71.49789683,Milford,Metropolitan Area Planning Council
Modera Hopkinton/Hopkinton Mews,completed,2018,280,0,42.21428147,-71.53750354,Hopkinton,Metropolitan Area Planning Council
39 A Street,completed,2018,23,0,42.3412206,-71.05581358,Boston,Metropolitan Area Planning Council
Emerson College - 1-3 Boylston Place,completed,2018,0,0,42.3520418,-71.06613334,Boston,Metropolitan Area Planning Council
Davenport Village,completed,2018,18,0,42.20279845,-71.50646658,Hopkinton,Metropolitan Area Planning Council
231 Lowell Street,completed,2018,19,1000,42.39186994,-71.10620535,Somerville,Metropolitan Area Planning Council
Spring Hill Farm,completed,2018,17,0,42.5918999,-70.85809548,Wenham,Metropolitan Area Planning Council
60 Lenox Street,completed,2018,18,0,42.19346966,-71.19666429,Norwood,Metropolitan Area Planning Council
85-93 Willow Court,completed,2018,14,0,42.32501985,-71.06423934,Boston,Metropolitan Area Planning Council
DLTA Project 1,completed,2018,24,0,42.24282835,-71.36966615,Sherborn,Metropolitan Area Planning Council
